% program   : RTKPOST ver.2.4.2
% inp file  : C:\Users\Melissa\Documents\Survey_Data\PS_Deployment_20211026\20211026\Rover\1007299a.21o
% inp file  : C:\Users\Melissa\Documents\Survey_Data\PS_Deployment_20211026\20211026\Base\masa299\masa2990.21o
% inp file  : C:\Users\Melissa\Documents\Survey_Data\PS_Deployment_20211026\20211026\Base\masa299\masa2990.21n
% inp file  : C:\Users\Melissa\Documents\Survey_Data\PS_Deployment_20211026\20211026\Base\masa299\igr21812.sp3
% obs start : 2021/10/26 12:57:57.0 GPST (week2181 219477.0s)
% obs end   : 2021/10/26 14:14:56.0 GPST (week2181 224096.0s)
% pos mode  : kinematic
% freqs     : L1+L2+L5
% solution  : combined
% elev mask : 15.0 deg
% dynamics  : off
% tidecorr  : off
% ionos opt : broadcast
% tropo opt : saastamoinen
% ephemeris : broadcast
% navi sys  : gps glonass galileo qzss
% amb res   : continuous
% amb glo   : on
% val thres : 3.0
% antenna1  :                       ( 0.0000  0.0000  0.0000)
% antenna2  :                       ( 0.0000  0.0000  0.0000)
% ref pos   : 42.862755764  -70.890266128   -11.4870
%
% (lat/lon/height=WGS84/ellipsoidal,Q=1:fix,2:float,3:sbas,4:dgps,5:single,6:ppp,ns=# of satellites)
%  GPST                  latitude(deg) longitude(deg)  height(m)   Q  ns   sdn(m)   sde(m)   sdu(m)  sdne(m)  sdeu(m)  sdun(m) age(s)  ratio
2021/10/26 12:57:57.000   43.025206671  -70.731181329   -22.6632   2   6   0.7074   0.3723   1.9409   0.2768  -0.4302  -1.0821   0.00    2.6
2021/10/26 12:57:58.000   43.025205921  -70.731182877   -23.0147   1   6   0.0100   0.0052   0.0277   0.0040  -0.0061  -0.0155   0.00   16.8
2021/10/26 12:57:59.000   43.025205936  -70.731182893   -23.0209   1   6   0.0101   0.0051   0.0278   0.0040  -0.0062  -0.0155   0.00   16.1
2021/10/26 12:58:00.000   43.025205995  -70.731182827   -23.0328   1   6   0.0101   0.0053   0.0277   0.0038  -0.0061  -0.0155   0.00   15.5
2021/10/26 12:58:01.000   43.025205960  -70.731182818   -23.0213   1   6   0.0071   0.0038   0.0196   0.0027  -0.0043  -0.0109   0.00    3.0
2021/10/26 12:58:02.000   43.025205963  -70.731182829   -23.0245   1   6   0.0072   0.0037   0.0196   0.0027  -0.0043  -0.0109   0.00    3.4
2021/10/26 12:58:03.000   43.025206056  -70.731182908   -23.0366   1   6   0.0071   0.0036   0.0196   0.0028  -0.0043  -0.0109   0.00    3.9
2021/10/26 12:58:04.000   43.025206066  -70.731182870   -23.0507   1   6   0.0071   0.0038   0.0196   0.0028  -0.0043  -0.0109   0.00    4.4
2021/10/26 12:58:05.000   43.025206081  -70.731182864   -23.0429   1   6   0.0072   0.0037   0.0196   0.0028  -0.0043  -0.0109   0.00    4.8
2021/10/26 12:58:06.000   43.025206097  -70.731182862   -23.0599   1   6   0.0072   0.0037   0.0196   0.0027  -0.0043  -0.0109   0.00    5.4
2021/10/26 12:58:07.000   43.025206127  -70.731182868   -23.0638   1   6   0.0071   0.0038   0.0196   0.0027  -0.0043  -0.0109   0.00    5.9
2021/10/26 12:58:08.000   43.025206119  -70.731182891   -23.0745   1   6   0.0071   0.0038   0.0196   0.0028  -0.0043  -0.0109   0.00    6.6
2021/10/26 12:58:09.000   43.025206139  -70.731182860   -23.0780   1   6   0.0071   0.0039   0.0196   0.0027  -0.0043  -0.0109   0.00    6.9
2021/10/26 12:58:10.000   43.025206151  -70.731182875   -23.0855   1   6   0.0072   0.0037   0.0196   0.0028  -0.0043  -0.0109   0.00    7.4
2021/10/26 12:58:11.000   43.025206133  -70.731182855   -23.0821   1   6   0.0071   0.0038   0.0196   0.0028  -0.0043  -0.0109   0.00    7.7
2021/10/26 12:58:12.000   43.025206159  -70.731182898   -23.0875   1   6   0.0071   0.0038   0.0196   0.0028  -0.0043  -0.0109   0.00    8.1
2021/10/26 12:58:13.000   43.025206126  -70.731182902   -23.0825   1   6   0.0071   0.0037   0.0197   0.0027  -0.0043  -0.0109   0.00    8.6
2021/10/26 12:58:14.000   43.025206123  -70.731182848   -23.0781   1   6   0.0071   0.0037   0.0196   0.0027  -0.0043  -0.0109   0.00    9.0
2021/10/26 12:58:15.000   43.025206091  -70.731182886   -23.0764   1   6   0.0071   0.0038   0.0196   0.0028  -0.0043  -0.0109   0.00    9.6
2021/10/26 12:58:16.000   43.025206111  -70.731182903   -23.0823   1   6   0.0072   0.0037   0.0197   0.0028  -0.0043  -0.0109   0.00   10.1
2021/10/26 12:58:17.000   43.025206128  -70.731182887   -23.0891   1   6   0.0071   0.0038   0.0197   0.0028  -0.0042  -0.0109   0.00   10.6
2021/10/26 12:58:18.000   43.025206143  -70.731182893   -23.0858   1   6   0.0071   0.0039   0.0197   0.0027  -0.0043  -0.0109   0.00   11.0
2021/10/26 12:58:19.000   43.025206097  -70.731182959   -23.0840   1   6   0.0071   0.0038   0.0197   0.0027  -0.0043  -0.0109   0.00   11.5
2021/10/26 12:58:20.000   43.025206096  -70.731182961   -23.0843   1   6   0.0071   0.0039   0.0197   0.0027  -0.0043  -0.0109   0.00   11.8
2021/10/26 12:58:21.000   43.025206055  -70.731182997   -23.0721   1   6   0.0071   0.0038   0.0197   0.0027  -0.0043  -0.0109   0.00   12.0
2021/10/26 12:58:22.000   43.025206001  -70.731182857   -23.0654   1   6   0.0071   0.0036   0.0197   0.0028  -0.0043  -0.0109   0.00   11.8
2021/10/26 12:58:23.000   43.025206096  -70.731183043   -23.0786   1   6   0.0072   0.0039   0.0197   0.0026  -0.0043  -0.0109   0.00   11.5
2021/10/26 12:58:24.000   43.025206060  -70.731183022   -23.0752   1   6   0.0071   0.0037   0.0197   0.0027  -0.0042  -0.0109   0.00   11.2
2021/10/26 12:58:25.000   43.025206079  -70.731183071   -23.0698   1   6   0.0072   0.0038   0.0197   0.0025  -0.0043  -0.0109   0.00   10.8
2021/10/26 12:58:26.000   43.025206126  -70.731183160   -23.0723   1   6   0.0071   0.0037   0.0197   0.0028  -0.0042  -0.0109   0.00   10.3
2021/10/26 12:58:27.000   43.025206191  -70.731183132   -23.0918   1   6   0.0071   0.0037   0.0197   0.0028  -0.0042  -0.0109   0.00    9.7
2021/10/26 12:58:28.000   43.025206120  -70.731183142   -23.0854   1   6   0.0071   0.0036   0.0197   0.0028  -0.0042  -0.0109   0.00    8.9
2021/10/26 12:58:29.000   43.025206187  -70.731183259   -23.0815   1   6   0.0071   0.0038   0.0197   0.0028  -0.0042  -0.0109   0.00    8.3
2021/10/26 12:58:30.000   43.025206272  -70.731183429   -23.0824   1   6   0.0071   0.0037   0.0197   0.0027  -0.0042  -0.0109   0.00    7.7
2021/10/26 12:58:31.000   43.025206299  -70.731183573   -23.0800   1   6   0.0072   0.0037   0.0197   0.0027  -0.0042  -0.0109   0.00    7.2
2021/10/26 12:58:32.000   43.025206271  -70.731183604   -23.0719   1   6   0.0071   0.0037   0.0197   0.0028  -0.0042  -0.0109   0.00    6.7
2021/10/26 12:58:33.000   43.025206276  -70.731183605   -23.0747   1   6   0.0070   0.0038   0.0197   0.0028  -0.0042  -0.0109   0.00    6.2
2021/10/26 12:58:34.000   43.025206268  -70.731183633   -23.0677   1   6   0.0071   0.0038   0.0197   0.0026  -0.0042  -0.0109   0.00    5.8
2021/10/26 12:58:35.000   43.025206290  -70.731183628   -23.0786   1   6   0.0071   0.0039   0.0197   0.0027  -0.0042  -0.0109   0.00    5.4
2021/10/26 12:58:36.000   43.025206302  -70.731183648   -23.0856   1   6   0.0071   0.0038   0.0197   0.0027  -0.0042  -0.0109   0.00    5.0
2021/10/26 12:58:37.000   43.025206322  -70.731183625   -23.0790   1   6   0.0071   0.0037   0.0197   0.0028  -0.0042  -0.0109   0.00    4.7
2021/10/26 12:58:38.000   43.025206267  -70.731183589   -23.0891   1   6   0.0071   0.0037   0.0197   0.0027  -0.0042  -0.0109   0.00    4.4
2021/10/26 12:58:39.000   43.025206318  -70.731183622   -23.1017   1   6   0.0071   0.0037   0.0197   0.0027  -0.0042  -0.0109   0.00    4.2
2021/10/26 12:58:40.000   43.025206335  -70.731183668   -23.0946   1   6   0.0071   0.0037   0.0197   0.0027  -0.0042  -0.0109   0.00    3.9
2021/10/26 12:58:41.000   43.025206383  -70.731183654   -23.0987   1   6   0.0071   0.0037   0.0197   0.0026  -0.0042  -0.0109   0.00    3.7
2021/10/26 12:58:42.000   43.025206387  -70.731183615   -23.1135   1   6   0.0071   0.0036   0.0197   0.0027  -0.0042  -0.0109   0.00    3.5
2021/10/26 12:58:43.000   43.025206405  -70.731183664   -23.1076   1   6   0.0071   0.0037   0.0197   0.0027  -0.0042  -0.0109   0.00    3.4
2021/10/26 12:58:44.000   43.025206496  -70.731183856   -23.1130   1   6   0.0072   0.0038   0.0197   0.0027  -0.0042  -0.0109   0.00    3.2
2021/10/26 12:58:45.000   43.025206418  -70.731183660   -23.1138   1   6   0.0070   0.0037   0.0197   0.0028  -0.0041  -0.0109   0.00    3.1
2021/10/26 12:58:46.000   43.025206409  -70.731183633   -23.1174   1   6   0.0071   0.0037   0.0197   0.0027  -0.0042  -0.0109   0.00    3.0
2021/10/26 12:58:47.000   43.025206344  -70.731183617   -23.1109   1   6   0.0099   0.0055   0.0279   0.0039  -0.0059  -0.0155   0.00    5.7
2021/10/26 12:58:48.000   43.025206396  -70.731183679   -23.1174   1   6   0.0101   0.0054   0.0279   0.0038  -0.0059  -0.0154   0.00    5.4
2021/10/26 12:58:49.000   43.025206447  -70.731183647   -23.1152   1   6   0.0101   0.0052   0.0279   0.0037  -0.0059  -0.0154   0.00    5.0
2021/10/26 12:58:50.000   43.025206490  -70.731183661   -23.1358   1   6   0.0100   0.0053   0.0279   0.0038  -0.0058  -0.0155   0.00    4.5
2021/10/26 12:58:51.000   43.025206491  -70.731183715   -23.1142   1   6   0.0101   0.0051   0.0279   0.0036  -0.0059  -0.0154   0.00    3.9
2021/10/26 12:58:52.000   43.025207251  -70.731182800   -23.0915   1   6   0.0100   0.0052   0.0279   0.0039  -0.0058  -0.0154   0.00    3.3
2021/10/26 12:58:53.000   43.025210395  -70.731176349   -23.4387   2   6   0.0114   0.0116   0.0598  -0.0050   0.0220  -0.0215   0.00    2.5
2021/10/26 12:58:54.000   43.025215050  -70.731166795   -23.0124   1   5   0.0072   0.0039   0.0247   0.0024   0.0002  -0.0115   0.00    4.8
2021/10/26 12:58:55.000   43.025220830  -70.731159581   -23.0280   1   5   0.0072   0.0040   0.0248   0.0024   0.0002  -0.0115   0.00    4.8
2021/10/26 12:58:56.000   43.025227478  -70.731152974   -23.0042   1   5   0.0072   0.0038   0.0248   0.0024   0.0006  -0.0115   0.00    4.8
2021/10/26 12:58:57.000   43.025236833  -70.731145124   -23.2690   2   6   0.0115   0.0117   0.0614  -0.0051   0.0223  -0.0217   0.00    1.5
2021/10/26 12:58:58.000   43.025245700  -70.731136806   -23.2408   2   6   0.0114   0.0115   0.0583  -0.0049   0.0217  -0.0212   0.00    2.0
2021/10/26 12:58:59.000   43.025254451  -70.731128705   -23.2374   2   6   0.0115   0.0116   0.0583  -0.0050   0.0217  -0.0212   0.00    2.3
2021/10/26 12:59:00.000   43.025259340  -70.731122975   -23.1786   2   6   0.0114   0.0116   0.0583  -0.0050   0.0217  -0.0212   0.00    2.7
2021/10/26 12:59:01.000   43.025259801  -70.731114625   -23.1099   2   6   0.0114   0.0115   0.0583  -0.0049   0.0218  -0.0212   0.00    3.0
2021/10/26 12:59:02.000   43.025260525  -70.731100731   -22.8153   1   6   0.0101   0.0052   0.0279   0.0036  -0.0058  -0.0154   0.00    3.2
2021/10/26 12:59:03.000   43.025260754  -70.731087839   -22.6544   1   6   0.0100   0.0052   0.0279   0.0035  -0.0058  -0.0154   0.00    3.2
2021/10/26 12:59:04.000   43.025260366  -70.731074722   -22.4935   1   6   0.0099   0.0051   0.0279   0.0039  -0.0058  -0.0154   0.00    3.1
2021/10/26 12:59:05.000   43.025258975  -70.731060975   -22.4162   2   6   0.0116   0.0116   0.0583  -0.0050   0.0218  -0.0211   0.00    3.0
2021/10/26 12:59:06.000   43.025257077  -70.731048200   -22.2638   2   6   0.0116   0.0115   0.0583  -0.0049   0.0218  -0.0211   0.00    2.9
2021/10/26 12:59:07.000   43.025255605  -70.731034837   -22.1667   2   6   0.0116   0.0115   0.0583  -0.0048   0.0218  -0.0211   0.00    2.8
2021/10/26 12:59:08.000   43.025253981  -70.731021041   -22.0525   2   6   0.0116   0.0115   0.0583  -0.0049   0.0218  -0.0211   0.00    2.7
2021/10/26 12:59:09.000   43.025252337  -70.731006718   -21.9622   2   6   0.0117   0.0116   0.0583  -0.0050   0.0218  -0.0211   0.00    2.6
2021/10/26 12:59:10.000   43.025250285  -70.730993853   -21.8307   2   6   0.0116   0.0116   0.0583  -0.0049   0.0218  -0.0211   0.00    2.6
2021/10/26 12:59:11.000   43.025248392  -70.730981593   -21.6953   2   6   0.0118   0.0115   0.0583  -0.0050   0.0218  -0.0211   0.00    2.6
2021/10/26 12:59:12.000   43.025245065  -70.730968300   -21.6109   2   6   0.0117   0.0115   0.0583  -0.0049   0.0218  -0.0210   0.00    2.5
2021/10/26 12:59:13.000   43.025242317  -70.730956952   -21.4619   2   6   0.0119   0.0117   0.0583  -0.0050   0.0218  -0.0210   0.00    2.4
2021/10/26 12:59:14.000   43.025239599  -70.730945854   -21.3261   2   6   0.0118   0.0115   0.0584  -0.0048   0.0218  -0.0210   0.00    2.4
2021/10/26 12:59:15.000   43.025236379  -70.730935629   -21.1250   2   6   0.0120   0.0115   0.0584  -0.0048   0.0218  -0.0210   0.00    2.3
2021/10/26 12:59:16.000   43.025234660  -70.730925746   -21.0019   2   6   0.0120   0.0115   0.0585  -0.0047   0.0219  -0.0210   0.00    2.2
2021/10/26 12:59:17.000   43.025233115  -70.730916041   -20.8372   2   6   0.0123   0.0116   0.0586  -0.0048   0.0218  -0.0210   0.00    2.0
2021/10/26 12:59:18.000   43.025230773  -70.730906463   -20.6582   2   6   0.0124   0.0114   0.0587  -0.0046   0.0219  -0.0210   0.00    1.8
2021/10/26 12:59:19.000   43.025229870  -70.730896813   -20.7048   2   6   0.0130   0.0116   0.0590  -0.0047   0.0219  -0.0209   0.00    1.4
2021/10/26 12:59:20.000   43.025228045  -70.730887452   -20.4574   2   6   0.0137   0.0116   0.0595  -0.0045   0.0221  -0.0209   0.00    1.3
2021/10/26 12:59:21.000   43.025225619  -70.730879318   -20.2853   2   6   0.0156   0.0116   0.0610  -0.0040   0.0223  -0.0208   0.00    1.2
2021/10/26 12:59:22.000   43.025223417  -70.730869422   -19.8302   1   4   0.0150   0.0055   0.0358   0.0054   0.0037  -0.0139   0.00    7.5
2021/10/26 12:59:23.000   43.025220944  -70.730859874   -19.6921   1   4   0.0150   0.0057   0.0358   0.0053   0.0037  -0.0139   0.00    7.6
2021/10/26 12:59:24.000   43.025218578  -70.730850944   -19.5438   1   4   0.0150   0.0058   0.0358   0.0053   0.0038  -0.0139   0.00    7.7
2021/10/26 12:59:25.000   43.025216334  -70.730841942   -19.4184   1   4   0.0150   0.0058   0.0358   0.0053   0.0037  -0.0139   0.00    7.9
2021/10/26 12:59:26.000   43.025213203  -70.730831583   -19.2689   1   4   0.0150   0.0055   0.0358   0.0054   0.0038  -0.0139   0.00    7.9
2021/10/26 12:59:27.000   43.025209664  -70.730822290   -19.0984   1   4   0.0150   0.0058   0.0358   0.0053   0.0037  -0.0139   0.00    8.0
2021/10/26 12:59:28.000   43.025206351  -70.730812901   -18.9407   1   4   0.0150   0.0058   0.0358   0.0053   0.0038  -0.0139   0.00    8.2
2021/10/26 12:59:29.000   43.025202965  -70.730804158   -18.8037   1   5   0.0111   0.0054   0.0353   0.0037   0.0025  -0.0159   0.00    3.2
2021/10/26 12:59:30.000   43.025199176  -70.730795878   -18.7162   1   5   0.0101   0.0053   0.0352   0.0034   0.0021  -0.0163   0.00    4.9
2021/10/26 12:59:31.000   43.025195360  -70.730787439   -18.6750   1   5   0.0071   0.0039   0.0249   0.0023   0.0014  -0.0115   0.00    9.1
2021/10/26 12:59:32.000   43.025190684  -70.730778142   -18.6022   1   5   0.0071   0.0039   0.0249   0.0023   0.0015  -0.0115   0.00   12.7
2021/10/26 12:59:33.000   43.025186087  -70.730768681   -18.5589   1   5   0.0071   0.0039   0.0249   0.0023   0.0015  -0.0115   0.00   13.6
2021/10/26 12:59:34.000   43.025181207  -70.730757963   -18.5249   1   5   0.0100   0.0055   0.0353   0.0034   0.0022  -0.0163   0.00   14.4
2021/10/26 12:59:35.000   43.025177292  -70.730747657   -18.5238   1   5   0.0100   0.0054   0.0353   0.0034   0.0023  -0.0163   0.00   15.1
2021/10/26 12:59:36.000   43.025173471  -70.730737887   -18.5856   1   6   0.0101   0.0054   0.0353   0.0035   0.0024  -0.0163   0.00   15.8
2021/10/26 12:59:37.000   43.025170844  -70.730735874   -18.6224   1   6   0.0101   0.0052   0.0318   0.0036  -0.0035  -0.0159   0.00   16.5
2021/10/26 12:59:38.000   43.025166888  -70.730732718   -18.8556   2   5   0.0138   0.0114   0.0534  -0.0076   0.0200  -0.0234   0.00    1.2
2021/10/26 12:59:39.000   43.025162051  -70.730727877   -19.0088   2   5   0.0133   0.0108   0.0494  -0.0066   0.0180  -0.0218   0.00    1.3
2021/10/26 12:59:40.000   43.025156711  -70.730722630   -19.1938   2   6   0.0125   0.0101   0.0483  -0.0052   0.0169  -0.0208   0.00    1.5
2021/10/26 12:59:41.000   43.025151431  -70.730715655   -19.4595   2   6   0.0126   0.0097   0.0482  -0.0049   0.0167  -0.0207   0.00    1.6
2021/10/26 12:59:42.000   43.025145508  -70.730708020   -19.7336   2   6   0.0131   0.0101   0.0488  -0.0056   0.0172  -0.0214   0.00    1.7
2021/10/26 12:59:43.000   43.025139731  -70.730700962   -20.0140   2   6   0.0143   0.0109   0.0501  -0.0070   0.0183  -0.0228   0.00    1.7
2021/10/26 12:59:44.000   43.025132576  -70.730694758   -20.2458   2   6   0.0134   0.0075   0.0411   0.0022   0.0099  -0.0176   0.00    2.7
2021/10/26 12:59:45.000   43.025127717  -70.730686046   -20.5194   2   5   0.0149   0.0063   0.0358   0.0050   0.0041  -0.0148   0.00    2.4
2021/10/26 12:59:46.000   43.025122353  -70.730680759   -20.6801   1   5   0.0114   0.0056   0.0355   0.0037   0.0029  -0.0158   0.00   42.4
2021/10/26 12:59:47.000   43.025117236  -70.730676658   -20.8727   1   5   0.0117   0.0055   0.0355   0.0040   0.0030  -0.0157   0.00   42.4
2021/10/26 12:59:48.000   43.025111588  -70.730671095   -21.0324   1   6   0.0123   0.0056   0.0356   0.0042   0.0033  -0.0154   0.00   42.4
2021/10/26 12:59:49.000   43.025105074  -70.730665547   -21.3077   1   6   0.0139   0.0056   0.0329   0.0041  -0.0031  -0.0167   0.00   42.3
2021/10/26 12:59:50.000   43.025102189  -70.730660766   -21.4721   1   4   0.0150   0.0056   0.0359   0.0053   0.0039  -0.0141   0.00   42.4
2021/10/26 12:59:51.000   43.025099625  -70.730656958   -21.6241   2   5   0.0149   0.0064   0.0358   0.0050   0.0042  -0.0148   0.00    2.5
2021/10/26 12:59:52.000   43.025098995  -70.730655105   -21.5992   1   5   0.0071   0.0040   0.0250   0.0023   0.0019  -0.0115   0.00    3.2
2021/10/26 12:59:53.000   43.025098770  -70.730654833   -21.6213   1   5   0.0071   0.0038   0.0250   0.0024   0.0019  -0.0115   0.00    3.2
2021/10/26 12:59:54.000   43.025098707  -70.730654736   -21.6047   1   6   0.0071   0.0039   0.0250   0.0022   0.0019  -0.0115   0.00    3.2
2021/10/26 12:59:55.000   43.025098638  -70.730654605   -21.6034   1   6   0.0071   0.0038   0.0236   0.0024  -0.0014  -0.0113   0.00    3.2
2021/10/26 12:59:56.000   43.025098417  -70.730654140   -21.6654   1   6   0.0099   0.0054   0.0280   0.0036  -0.0054  -0.0154   0.00   41.8
2021/10/26 12:59:57.000   43.025098354  -70.730654110   -21.6754   1   6   0.0099   0.0051   0.0280   0.0036  -0.0055  -0.0154   0.00   41.4
2021/10/26 12:59:58.000   43.025098459  -70.730654371   -21.6671   1   6   0.0070   0.0037   0.0198   0.0025  -0.0039  -0.0109   0.00    3.1
2021/10/26 12:59:59.000   43.025098514  -70.730654506   -21.6700   1   6   0.0070   0.0036   0.0198   0.0026  -0.0039  -0.0109   0.00    3.5
2021/10/26 13:00:00.000   43.025098455  -70.730654336   -21.6713   1   6   0.0070   0.0037   0.0198   0.0025  -0.0039  -0.0109   0.00    3.5
2021/10/26 13:00:01.000   43.025098351  -70.730654142   -21.6810   1   6   0.0070   0.0036   0.0198   0.0026  -0.0039  -0.0109   0.00    3.4
2021/10/26 13:00:02.000   43.025098285  -70.730654079   -21.6775   1   6   0.0070   0.0036   0.0198   0.0027  -0.0038  -0.0109   0.00    3.4
2021/10/26 13:00:03.000   43.025098294  -70.730654043   -21.6775   1   6   0.0071   0.0036   0.0198   0.0025  -0.0038  -0.0109   0.00    3.3
2021/10/26 13:00:04.000   43.025098282  -70.730653998   -21.6729   1   6   0.0071   0.0037   0.0198   0.0026  -0.0039  -0.0109   0.00    3.3
2021/10/26 13:00:05.000   43.025098221  -70.730653793   -21.6907   1   6   0.0071   0.0037   0.0198   0.0025  -0.0039  -0.0109   0.00    3.3
2021/10/26 13:00:06.000   43.025098047  -70.730653279   -21.6994   1   6   0.0070   0.0035   0.0198   0.0027  -0.0038  -0.0109   0.00    3.2
2021/10/26 13:00:07.000   43.025097978  -70.730653193   -21.6988   1   6   0.0070   0.0035   0.0198   0.0025  -0.0039  -0.0109   0.00    3.2
2021/10/26 13:00:08.000   43.025097789  -70.730652881   -21.6887   1   6   0.0070   0.0036   0.0198   0.0026  -0.0038  -0.0109   0.00    3.1
2021/10/26 13:00:09.000   43.025096001  -70.730649206   -21.7200   1   6   0.0070   0.0036   0.0198   0.0025  -0.0039  -0.0109   0.00    3.1
2021/10/26 13:00:10.000   43.025092546  -70.730642736   -21.8335   1   6   0.0070   0.0036   0.0198   0.0025  -0.0038  -0.0109   0.00    3.1
2021/10/26 13:00:11.000   43.025091056  -70.730639398   -22.0846   1   6   0.0071   0.0036   0.0198   0.0024  -0.0039  -0.0109   0.00    3.1
2021/10/26 13:00:12.000   43.025090786  -70.730638376   -22.5719   1   6   0.0071   0.0036   0.0198   0.0025  -0.0038  -0.0109   0.00    3.2
2021/10/26 13:00:13.000   43.025089294  -70.730634777   -22.7112   1   6   0.0070   0.0037   0.0198   0.0024  -0.0039  -0.0109   0.00    3.2
2021/10/26 13:00:14.000   43.025088516  -70.730632739   -22.7419   1   6   0.0071   0.0037   0.0198   0.0025  -0.0038  -0.0109   0.00    3.2
2021/10/26 13:00:15.000   43.025087898  -70.730631678   -22.7486   1   6   0.0069   0.0037   0.0198   0.0026  -0.0038  -0.0109   0.00    3.2
2021/10/26 13:00:16.000   43.025087996  -70.730631832   -22.7338   1   6   0.0071   0.0037   0.0198   0.0023  -0.0039  -0.0109   0.00    3.3
2021/10/26 13:00:17.000   43.025085780  -70.730629833   -22.7820   1   6   0.0070   0.0036   0.0198   0.0025  -0.0038  -0.0109   0.00    3.4
2021/10/26 13:00:18.000   43.025084124  -70.730625384   -22.8283   1   6   0.0070   0.0035   0.0198   0.0025  -0.0038  -0.0109   0.00    3.4
2021/10/26 13:00:19.000   43.025082789  -70.730623716   -22.8405   1   6   0.0070   0.0035   0.0198   0.0025  -0.0038  -0.0109   0.00    3.5
2021/10/26 13:00:20.000   43.025079250  -70.730623336   -22.8812   1   6   0.0070   0.0036   0.0198   0.0026  -0.0038  -0.0109   0.00    3.6
2021/10/26 13:00:21.000   43.025070808  -70.730621912   -22.9532   1   6   0.0071   0.0038   0.0198   0.0023  -0.0038  -0.0109   0.00    3.6
2021/10/26 13:00:22.000   43.025060378  -70.730623895   -23.0144   1   6   0.0070   0.0036   0.0198   0.0025  -0.0038  -0.0109   0.00    3.7
2021/10/26 13:00:23.000   43.025051186  -70.730627647   -23.0298   1   6   0.0070   0.0037   0.0198   0.0025  -0.0038  -0.0109   0.00    3.8
2021/10/26 13:00:24.000   43.025042015  -70.730632514   -23.0267   1   6   0.0070   0.0038   0.0198   0.0024  -0.0038  -0.0109   0.00    3.9
2021/10/26 13:00:25.000   43.025031866  -70.730639650   -22.9987   1   6   0.0070   0.0037   0.0198   0.0025  -0.0038  -0.0109   0.00    3.9
2021/10/26 13:00:26.000   43.025022806  -70.730647058   -22.9649   1   6   0.0070   0.0037   0.0198   0.0024  -0.0038  -0.0109   0.00    3.9
2021/10/26 13:00:27.000   43.025015018  -70.730653885   -22.9483   1   6   0.0070   0.0037   0.0198   0.0024  -0.0038  -0.0109   0.00    4.0
2021/10/26 13:00:28.000   43.025006920  -70.730660564   -22.9567   1   6   0.0070   0.0036   0.0198   0.0025  -0.0038  -0.0109   0.00    4.0
2021/10/26 13:00:29.000   43.024998723  -70.730668183   -22.9371   1   6   0.0071   0.0038   0.0198   0.0024  -0.0038  -0.0109   0.00    4.1
2021/10/26 13:00:30.000   43.024991701  -70.730673713   -22.9533   1   6   0.0069   0.0036   0.0198   0.0026  -0.0037  -0.0109   0.00    4.2
2021/10/26 13:00:31.000   43.024983761  -70.730679429   -22.9279   1   6   0.0070   0.0037   0.0198   0.0024  -0.0038  -0.0109   0.00    4.2
2021/10/26 13:00:32.000   43.024976080  -70.730686386   -22.9220   1   6   0.0070   0.0038   0.0198   0.0024  -0.0038  -0.0109   0.00    4.3
2021/10/26 13:00:33.000   43.024967428  -70.730692091   -22.9183   1   6   0.0070   0.0037   0.0198   0.0023  -0.0038  -0.0109   0.00    4.3
2021/10/26 13:00:34.000   43.024959297  -70.730698412   -22.9183   1   6   0.0070   0.0037   0.0198   0.0025  -0.0037  -0.0109   0.00    4.4
2021/10/26 13:00:35.000   43.024951288  -70.730703538   -22.9365   1   6   0.0070   0.0036   0.0198   0.0025  -0.0037  -0.0109   0.00    4.5
2021/10/26 13:00:36.000   43.024943089  -70.730708558   -22.9382   1   6   0.0071   0.0035   0.0198   0.0025  -0.0037  -0.0108   0.00    4.5
2021/10/26 13:00:37.000   43.024934454  -70.730713363   -22.9474   1   6   0.0071   0.0037   0.0198   0.0024  -0.0037  -0.0109   0.00    4.6
2021/10/26 13:00:38.000   43.024925774  -70.730718125   -22.9499   1   6   0.0070   0.0036   0.0198   0.0025  -0.0037  -0.0109   0.00    4.8
2021/10/26 13:00:39.000   43.024918215  -70.730721926   -22.9772   1   6   0.0070   0.0037   0.0198   0.0024  -0.0037  -0.0109   0.00    4.9
2021/10/26 13:00:40.000   43.024910021  -70.730726103   -22.9718   1   6   0.0070   0.0036   0.0198   0.0024  -0.0037  -0.0109   0.00    5.0
2021/10/26 13:00:41.000   43.024900964  -70.730730563   -23.0030   1   6   0.0070   0.0036   0.0198   0.0024  -0.0037  -0.0109   0.00    5.1
2021/10/26 13:00:42.000   43.024894600  -70.730734790   -23.0134   1   6   0.0070   0.0037   0.0198   0.0024  -0.0037  -0.0109   0.00    5.3
2021/10/26 13:00:43.000   43.024889721  -70.730738117   -23.0096   1   6   0.0070   0.0036   0.0198   0.0024  -0.0037  -0.0109   0.00    5.4
2021/10/26 13:00:44.000   43.024885690  -70.730743111   -23.0044   1   6   0.0070   0.0034   0.0198   0.0025  -0.0037  -0.0109   0.00    5.5
2021/10/26 13:00:45.000   43.024883068  -70.730745641   -23.0202   1   6   0.0070   0.0036   0.0198   0.0024  -0.0037  -0.0109   0.00    5.6
2021/10/26 13:00:46.000   43.024881700  -70.730747202   -23.0056   1   6   0.0070   0.0036   0.0199   0.0024  -0.0037  -0.0109   0.00    5.7
2021/10/26 13:00:47.000   43.024881680  -70.730747204   -23.0047   1   6   0.0070   0.0036   0.0198   0.0025  -0.0037  -0.0109   0.00    5.7
2021/10/26 13:00:48.000   43.024881072  -70.730747947   -23.0124   1   6   0.0071   0.0037   0.0199   0.0023  -0.0037  -0.0108   0.00    5.8
2021/10/26 13:00:49.000   43.024875548  -70.730754194   -23.0153   1   6   0.0070   0.0036   0.0199   0.0024  -0.0037  -0.0109   0.00    5.8
2021/10/26 13:00:50.000   43.024874902  -70.730752815   -23.0403   1   6   0.0070   0.0036   0.0199   0.0024  -0.0037  -0.0108   0.00    5.9
2021/10/26 13:00:51.000   43.024875368  -70.730749763   -23.0637   1   6   0.0069   0.0037   0.0198   0.0024  -0.0037  -0.0109   0.00    6.0
2021/10/26 13:00:52.000   43.024876257  -70.730756785   -22.9761   1   6   0.0070   0.0036   0.0199   0.0023  -0.0037  -0.0108   0.00    6.0
2021/10/26 13:00:53.000   43.024875016  -70.730752800   -23.0013   1   6   0.0070   0.0037   0.0199   0.0023  -0.0036  -0.0109   0.00    6.0
2021/10/26 13:00:54.000   43.024874088  -70.730755195   -23.0031   1   6   0.0071   0.0037   0.0199   0.0022  -0.0037  -0.0108   0.00    6.0
2021/10/26 13:00:55.000   43.024878613  -70.730758727   -22.9483   1   6   0.0070   0.0035   0.0199   0.0025  -0.0036  -0.0109   0.00    6.0
2021/10/26 13:00:56.000   43.024883427  -70.730765495   -22.9066   1   6   0.0070   0.0038   0.0199   0.0023  -0.0037  -0.0108   0.00    6.0
2021/10/26 13:00:57.000   43.024884634  -70.730767506   -22.9103   1   6   0.0070   0.0036   0.0199   0.0024  -0.0036  -0.0109   0.00    6.0
2021/10/26 13:00:58.000   43.024884483  -70.730767196   -22.9216   1   6   0.0070   0.0036   0.0199   0.0023  -0.0037  -0.0108   0.00    6.0
2021/10/26 13:00:59.000   43.024884537  -70.730767266   -22.9228   1   6   0.0070   0.0037   0.0199   0.0023  -0.0037  -0.0108   0.00    6.0
2021/10/26 13:01:00.000   43.024884555  -70.730767293   -22.9395   1   6   0.0071   0.0037   0.0199   0.0023  -0.0036  -0.0108   0.00    6.0
2021/10/26 13:01:01.000   43.024884567  -70.730767290   -22.9517   1   6   0.0070   0.0036   0.0199   0.0024  -0.0036  -0.0108   0.00    6.0
2021/10/26 13:01:02.000   43.024884568  -70.730767298   -22.9572   1   6   0.0070   0.0035   0.0199   0.0025  -0.0036  -0.0108   0.00    5.9
2021/10/26 13:01:03.000   43.024884595  -70.730767344   -22.9651   1   6   0.0070   0.0037   0.0199   0.0022  -0.0037  -0.0109   0.00    5.9
2021/10/26 13:01:04.000   43.024884626  -70.730767323   -22.9799   1   6   0.0070   0.0036   0.0199   0.0024  -0.0036  -0.0109   0.00    5.8
2021/10/26 13:01:05.000   43.024884694  -70.730767293   -22.9960   1   6   0.0069   0.0035   0.0199   0.0025  -0.0036  -0.0109   0.00    5.7
2021/10/26 13:01:06.000   43.024884695  -70.730767306   -22.9979   1   6   0.0070   0.0035   0.0199   0.0024  -0.0036  -0.0108   0.00    5.6
2021/10/26 13:01:07.000   43.024884677  -70.730767295   -22.9978   1   6   0.0070   0.0037   0.0199   0.0023  -0.0036  -0.0108   0.00    5.5
2021/10/26 13:01:08.000   43.024884744  -70.730767274   -23.0225   1   6   0.0069   0.0037   0.0199   0.0023  -0.0036  -0.0108   0.00    5.4
2021/10/26 13:01:09.000   43.024884750  -70.730767299   -23.0311   1   6   0.0070   0.0036   0.0199   0.0022  -0.0036  -0.0108   0.00    5.3
2021/10/26 13:01:10.000   43.024884736  -70.730767293   -23.0270   1   6   0.0069   0.0036   0.0199   0.0024  -0.0036  -0.0109   0.00    5.2
2021/10/26 13:01:11.000   43.024884735  -70.730767283   -23.0281   1   6   0.0070   0.0036   0.0199   0.0025  -0.0036  -0.0108   0.00    5.2
2021/10/26 13:01:12.000   43.024884796  -70.730767302   -23.0423   1   6   0.0069   0.0037   0.0199   0.0023  -0.0036  -0.0108   0.00    5.1
2021/10/26 13:01:13.000   43.024884771  -70.730767326   -23.0411   1   6   0.0070   0.0037   0.0199   0.0023  -0.0036  -0.0108   0.00    5.0
2021/10/26 13:01:14.000   43.024884802  -70.730767332   -23.0419   1   6   0.0070   0.0035   0.0199   0.0024  -0.0035  -0.0108   0.00    5.0
2021/10/26 13:01:15.000   43.024884853  -70.730767340   -23.0556   1   6   0.0070   0.0037   0.0199   0.0022  -0.0036  -0.0108   0.00    5.0
2021/10/26 13:01:16.000   43.024884812  -70.730767348   -23.0397   1   6   0.0070   0.0036   0.0199   0.0023  -0.0036  -0.0108   0.00    4.9
2021/10/26 13:01:17.000   43.024884790  -70.730767319   -23.0340   1   6   0.0070   0.0037   0.0199   0.0023  -0.0036  -0.0108   0.00    4.9
2021/10/26 13:01:18.000   43.024884805  -70.730767334   -23.0403   1   6   0.0070   0.0036   0.0199   0.0022  -0.0036  -0.0108   0.00    4.8
2021/10/26 13:01:19.000   43.024884789  -70.730767341   -23.0383   1   6   0.0070   0.0037   0.0199   0.0022  -0.0036  -0.0108   0.00    4.8
2021/10/26 13:01:20.000   43.024884755  -70.730767318   -23.0314   1   6   0.0070   0.0038   0.0199   0.0023  -0.0036  -0.0108   0.00    4.8
2021/10/26 13:01:21.000   43.024884761  -70.730767349   -23.0298   1   6   0.0069   0.0038   0.0199   0.0023  -0.0035  -0.0108   0.00    4.8
2021/10/26 13:01:22.000   43.024884730  -70.730767351   -23.0182   1   6   0.0070   0.0037   0.0199   0.0022  -0.0036  -0.0108   0.00    4.7
2021/10/26 13:01:23.000   43.024884706  -70.730767324   -23.0278   1   6   0.0070   0.0035   0.0199   0.0023  -0.0035  -0.0108   0.00    4.7
2021/10/26 13:01:24.000   43.024884697  -70.730767354   -23.0216   1   6   0.0069   0.0037   0.0199   0.0024  -0.0035  -0.0108   0.00    4.7
2021/10/26 13:01:25.000   43.024884675  -70.730767373   -23.0191   1   6   0.0070   0.0035   0.0199   0.0024  -0.0035  -0.0108   0.00    4.6
2021/10/26 13:01:26.000   43.024884691  -70.730767342   -23.0179   1   6   0.0069   0.0036   0.0199   0.0024  -0.0035  -0.0108   0.00    4.6
2021/10/26 13:01:27.000   43.024884696  -70.730767353   -23.0252   1   6   0.0069   0.0036   0.0199   0.0024  -0.0035  -0.0108   0.00    4.6
2021/10/26 13:01:28.000   43.024884637  -70.730767352   -23.0012   1   6   0.0070   0.0038   0.0199   0.0021  -0.0035  -0.0108   0.00    4.5
2021/10/26 13:01:29.000   43.024884645  -70.730767324   -23.0003   1   6   0.0070   0.0036   0.0199   0.0023  -0.0035  -0.0108   0.00    4.5
2021/10/26 13:01:30.000   43.024884639  -70.730767307   -23.0022   1   6   0.0069   0.0035   0.0199   0.0024  -0.0035  -0.0108   0.00    4.5
2021/10/26 13:01:31.000   43.024884637  -70.730767329   -23.0062   1   6   0.0070   0.0036   0.0199   0.0022  -0.0035  -0.0108   0.00    4.5
2021/10/26 13:01:32.000   43.024884615  -70.730767323   -23.0020   1   6   0.0070   0.0036   0.0199   0.0023  -0.0035  -0.0108   0.00    4.5
2021/10/26 13:01:33.000   43.024884574  -70.730767310   -22.9940   1   6   0.0070   0.0037   0.0199   0.0022  -0.0035  -0.0108   0.00    4.4
2021/10/26 13:01:34.000   43.024884566  -70.730767353   -22.9943   1   6   0.0070   0.0036   0.0199   0.0022  -0.0035  -0.0108   0.00    4.4
2021/10/26 13:01:35.000   43.024884540  -70.730767395   -22.9903   1   6   0.0070   0.0036   0.0199   0.0023  -0.0035  -0.0108   0.00    4.4
2021/10/26 13:01:36.000   43.024884457  -70.730767372   -22.9651   1   6   0.0070   0.0037   0.0199   0.0022  -0.0035  -0.0108   0.00    4.4
2021/10/26 13:01:37.000   43.024884415  -70.730767361   -22.9508   1   6   0.0069   0.0036   0.0199   0.0023  -0.0035  -0.0108   0.00    4.5
2021/10/26 13:01:38.000   43.024884393  -70.730767387   -22.9366   1   6   0.0069   0.0035   0.0199   0.0024  -0.0034  -0.0108   0.00    4.5
2021/10/26 13:01:39.000   43.024884384  -70.730767384   -22.9302   1   6   0.0069   0.0036   0.0199   0.0023  -0.0035  -0.0108   0.00    4.4
2021/10/26 13:01:40.000   43.024884329  -70.730767408   -22.9189   1   6   0.0070   0.0037   0.0199   0.0021  -0.0035  -0.0108   0.00    4.4
2021/10/26 13:01:41.000   43.024884302  -70.730767417   -22.9073   1   6   0.0069   0.0036   0.0199   0.0022  -0.0035  -0.0108   0.00    4.4
2021/10/26 13:01:42.000   43.024884224  -70.730767411   -22.8878   1   6   0.0070   0.0037   0.0199   0.0022  -0.0035  -0.0108   0.00    4.4
2021/10/26 13:01:43.000   43.024884164  -70.730767420   -22.8738   1   6   0.0070   0.0036   0.0199   0.0022  -0.0035  -0.0108   0.00    4.3
2021/10/26 13:01:44.000   43.024884170  -70.730767453   -22.8708   1   6   0.0070   0.0036   0.0199   0.0022  -0.0035  -0.0108   0.00    4.3
2021/10/26 13:01:45.000   43.024884110  -70.730767444   -22.8525   1   6   0.0070   0.0036   0.0199   0.0022  -0.0034  -0.0108   0.00    4.3
2021/10/26 13:01:46.000   43.024884060  -70.730767456   -22.8347   1   6   0.0070   0.0037   0.0199   0.0023  -0.0034  -0.0108   0.00    4.3
2021/10/26 13:01:47.000   43.024884049  -70.730767473   -22.8402   1   6   0.0069   0.0037   0.0199   0.0022  -0.0035  -0.0108   0.00    4.2
2021/10/26 13:01:48.000   43.024883994  -70.730767501   -22.8282   1   6   0.0070   0.0037   0.0199   0.0021  -0.0035  -0.0108   0.00    4.2
2021/10/26 13:01:49.000   43.024883953  -70.730767524   -22.8121   1   6   0.0070   0.0037   0.0199   0.0021  -0.0034  -0.0108   0.00    4.2
2021/10/26 13:01:50.000   43.024883966  -70.730767514   -22.8192   1   6   0.0069   0.0037   0.0199   0.0022  -0.0034  -0.0108   0.00    4.2
2021/10/26 13:01:51.000   43.024883977  -70.730767497   -22.8171   1   6   0.0069   0.0036   0.0199   0.0023  -0.0034  -0.0108   0.00    4.1
2021/10/26 13:01:52.000   43.024884041  -70.730767511   -22.8373   1   6   0.0070   0.0036   0.0199   0.0022  -0.0034  -0.0108   0.00    4.1
2021/10/26 13:01:53.000   43.024883998  -70.730767459   -22.8355   1   6   0.0069   0.0036   0.0199   0.0021  -0.0034  -0.0108   0.00    4.1
2021/10/26 13:01:54.000   43.024884035  -70.730767469   -22.8382   1   6   0.0070   0.0036   0.0199   0.0022  -0.0034  -0.0108   0.00    4.1
2021/10/26 13:01:55.000   43.024884114  -70.730767460   -22.8648   1   6   0.0070   0.0036   0.0199   0.0022  -0.0035  -0.0108   0.00    4.0
2021/10/26 13:01:56.000   43.024884103  -70.730767454   -22.8632   1   6   0.0070   0.0037   0.0199   0.0020  -0.0034  -0.0108   0.00    4.0
2021/10/26 13:01:57.000   43.024884113  -70.730767464   -22.8770   1   6   0.0069   0.0034   0.0199   0.0024  -0.0033  -0.0108   0.00    4.0
2021/10/26 13:01:58.000   43.024884140  -70.730767463   -22.8785   1   6   0.0069   0.0037   0.0199   0.0022  -0.0033  -0.0108   0.00    4.0
2021/10/26 13:01:59.000   43.024884190  -70.730767461   -22.8997   1   6   0.0070   0.0036   0.0199   0.0021  -0.0034  -0.0108   0.00    3.9
2021/10/26 13:02:00.000   43.024884247  -70.730767456   -22.9276   1   6   0.0070   0.0035   0.0199   0.0022  -0.0034  -0.0108   0.00    3.9
2021/10/26 13:02:01.000   43.024884195  -70.730767472   -22.9140   1   6   0.0069   0.0036   0.0199   0.0022  -0.0033  -0.0108   0.00    3.9
2021/10/26 13:02:02.000   43.024884259  -70.730767433   -22.9297   1   6   0.0069   0.0036   0.0199   0.0023  -0.0033  -0.0108   0.00    3.9
2021/10/26 13:02:03.000   43.024884209  -70.730767445   -22.9151   1   6   0.0070   0.0035   0.0199   0.0022  -0.0034  -0.0108   0.00    3.8
2021/10/26 13:02:04.000   43.024884222  -70.730767410   -22.9193   1   6   0.0069   0.0035   0.0199   0.0023  -0.0034  -0.0108   0.00    3.8
2021/10/26 13:02:05.000   43.024884238  -70.730767372   -22.9277   1   6   0.0069   0.0035   0.0199   0.0022  -0.0033  -0.0108   0.00    3.8
2021/10/26 13:02:06.000   43.024884229  -70.730767366   -22.9282   1   6   0.0068   0.0035   0.0199   0.0024  -0.0033  -0.0108   0.00    3.7
2021/10/26 13:02:07.000   43.024884238  -70.730767314   -22.9247   1   6   0.0069   0.0035   0.0199   0.0023  -0.0033  -0.0108   0.00    3.7
2021/10/26 13:02:08.000   43.024884303  -70.730767314   -22.9560   1   6   0.0069   0.0036   0.0199   0.0022  -0.0033  -0.0108   0.00    3.7
2021/10/26 13:02:09.000   43.024884247  -70.730767343   -22.9435   1   6   0.0069   0.0037   0.0199   0.0021  -0.0034  -0.0108   0.00    3.7
2021/10/26 13:02:10.000   43.024884235  -70.730767335   -22.9263   1   6   0.0069   0.0037   0.0199   0.0022  -0.0033  -0.0108   0.00    3.6
2021/10/26 13:02:11.000   43.024884207  -70.730767357   -22.9206   1   6   0.0069   0.0036   0.0199   0.0022  -0.0034  -0.0108   0.00    3.6
2021/10/26 13:02:12.000   43.024884228  -70.730767346   -22.9307   1   6   0.0068   0.0035   0.0199   0.0023  -0.0033  -0.0108   0.00    3.6
2021/10/26 13:02:13.000   43.024884239  -70.730767319   -22.9251   1   6   0.0069   0.0037   0.0199   0.0022  -0.0033  -0.0108   0.00    3.5
2021/10/26 13:02:14.000   43.024884299  -70.730767303   -22.9430   1   6   0.0069   0.0036   0.0199   0.0021  -0.0033  -0.0108   0.00    3.5
2021/10/26 13:02:15.000   43.024884302  -70.730767289   -22.9420   1   6   0.0069   0.0036   0.0199   0.0022  -0.0033  -0.0108   0.00    3.4
2021/10/26 13:02:16.000   43.024884362  -70.730767293   -22.9598   1   6   0.0069   0.0036   0.0199   0.0022  -0.0033  -0.0108   0.00    3.4
2021/10/26 13:02:17.000   43.024884368  -70.730767279   -22.9579   1   6   0.0069   0.0035   0.0199   0.0022  -0.0032  -0.0108   0.00    3.3
2021/10/26 13:02:18.000   43.024884355  -70.730767294   -22.9489   1   6   0.0069   0.0036   0.0199   0.0021  -0.0033  -0.0108   0.00    3.3
2021/10/26 13:02:19.000   43.024884401  -70.730767278   -22.9641   1   6   0.0070   0.0037   0.0199   0.0020  -0.0033  -0.0108   0.00    3.2
2021/10/26 13:02:20.000   43.024884394  -70.730767292   -22.9513   1   6   0.0069   0.0036   0.0199   0.0022  -0.0032  -0.0108   0.00    3.2
2021/10/26 13:02:21.000   43.024884402  -70.730767265   -22.9519   1   6   0.0068   0.0036   0.0199   0.0022  -0.0033  -0.0108   0.00    3.1
2021/10/26 13:02:22.000   43.024884419  -70.730767268   -22.9599   1   6   0.0069   0.0035   0.0199   0.0022  -0.0032  -0.0108   0.00    3.1
2021/10/26 13:02:23.000   43.024884465  -70.730767272   -22.9592   1   6   0.0068   0.0036   0.0199   0.0022  -0.0033  -0.0108   0.00    3.0
2021/10/26 13:02:24.000   43.024884462  -70.730767296   -22.9574   1   6   0.0068   0.0035   0.0199   0.0023  -0.0032  -0.0108   0.00    3.0
2021/10/26 13:02:25.000   43.024884473  -70.730767266   -22.9700   1   6   0.0097   0.0054   0.0282   0.0027  -0.0046  -0.0153   0.00   46.8
2021/10/26 13:02:26.000   43.024884505  -70.730767264   -22.9747   1   6   0.0099   0.0050   0.0282   0.0028  -0.0047  -0.0152   0.00   47.4
2021/10/26 13:02:27.000   43.024884480  -70.730767267   -22.9652   1   6   0.0098   0.0050   0.0282   0.0029  -0.0046  -0.0153   0.00   48.1
2021/10/26 13:02:28.000   43.024884460  -70.730767312   -22.9511   1   6   0.0097   0.0052   0.0282   0.0031  -0.0046  -0.0152   0.00   48.6
2021/10/26 13:02:29.000   43.024884414  -70.730767332   -22.9495   1   6   0.0099   0.0053   0.0282   0.0029  -0.0046  -0.0152   0.00   49.1
2021/10/26 13:02:30.000   43.024884380  -70.730767386   -22.9352   1   6   0.0098   0.0050   0.0282   0.0032  -0.0045  -0.0152   0.00   49.6
2021/10/26 13:02:31.000   43.024884367  -70.730767427   -22.9423   1   6   0.0097   0.0049   0.0282   0.0031  -0.0046  -0.0153   0.00   50.1
2021/10/26 13:02:32.000   43.024884301  -70.730767438   -22.9260   1   6   0.0099   0.0049   0.0282   0.0028  -0.0046  -0.0152   0.00   50.6
2021/10/26 13:02:33.000   43.024884291  -70.730767447   -22.9179   1   6   0.0096   0.0049   0.0282   0.0032  -0.0046  -0.0153   0.00   51.0
2021/10/26 13:02:34.000   43.024884299  -70.730767475   -22.9249   1   6   0.0097   0.0055   0.0282   0.0027  -0.0046  -0.0152   0.00   51.5
2021/10/26 13:02:35.000   43.024884288  -70.730767494   -22.9230   1   6   0.0097   0.0047   0.0282   0.0033  -0.0045  -0.0152   0.00   51.9
2021/10/26 13:02:36.000   43.024884263  -70.730767469   -22.8995   1   6   0.0096   0.0052   0.0282   0.0033  -0.0045  -0.0152   0.00   52.4
2021/10/26 13:02:37.000   43.024884280  -70.730767523   -22.9118   1   6   0.0100   0.0052   0.0282   0.0026  -0.0046  -0.0152   0.00   52.7
2021/10/26 13:02:38.000   43.024884218  -70.730767580   -22.8965   1   6   0.0097   0.0049   0.0282   0.0031  -0.0044  -0.0152   0.00   53.0
2021/10/26 13:02:39.000   43.024884215  -70.730767594   -22.8938   1   6   0.0098   0.0053   0.0282   0.0028  -0.0046  -0.0152   0.00   53.3
2021/10/26 13:02:40.000   43.024884210  -70.730767587   -22.8854   1   6   0.0098   0.0052   0.0282   0.0028  -0.0045  -0.0152   0.00   53.6
2021/10/26 13:02:41.000   43.024884235  -70.730767608   -22.8962   1   6   0.0096   0.0049   0.0282   0.0032  -0.0044  -0.0152   0.00   53.8
2021/10/26 13:02:42.000   43.024884179  -70.730767618   -22.8928   1   6   0.0096   0.0047   0.0282   0.0034  -0.0044  -0.0152   0.00   54.0
2021/10/26 13:02:43.000   43.024884140  -70.730767643   -22.8794   1   6   0.0098   0.0053   0.0282   0.0027  -0.0044  -0.0152   0.00   54.2
2021/10/26 13:02:44.000   43.024884126  -70.730767601   -22.8815   1   6   0.0099   0.0051   0.0282   0.0027  -0.0046  -0.0152   0.00   54.3
2021/10/26 13:02:45.000   43.024884107  -70.730767604   -22.8751   1   6   0.0097   0.0050   0.0282   0.0030  -0.0044  -0.0152   0.00   54.5
2021/10/26 13:02:46.000   43.024884134  -70.730767627   -22.8877   1   6   0.0097   0.0052   0.0282   0.0027  -0.0045  -0.0152   0.00   54.6
2021/10/26 13:02:47.000   43.024884182  -70.730767615   -22.9010   1   6   0.0096   0.0049   0.0282   0.0032  -0.0044  -0.0153   0.00   54.8
2021/10/26 13:02:48.000   43.024884177  -70.730767609   -22.9007   1   6   0.0097   0.0049   0.0282   0.0030  -0.0044  -0.0152   0.00   55.0
2021/10/26 13:02:49.000   43.024884204  -70.730767618   -22.9064   1   6   0.0099   0.0050   0.0282   0.0027  -0.0044  -0.0151   0.00   55.2
2021/10/26 13:02:50.000   43.024884201  -70.730767587   -22.9081   1   6   0.0098   0.0049   0.0282   0.0030  -0.0044  -0.0152   0.00   55.6
2021/10/26 13:02:51.000   43.024884223  -70.730767595   -22.9057   1   6   0.0096   0.0050   0.0282   0.0032  -0.0043  -0.0152   0.00   55.9
2021/10/26 13:02:52.000   43.024884265  -70.730767608   -22.9162   1   6   0.0098   0.0053   0.0282   0.0026  -0.0045  -0.0152   0.00   56.3
2021/10/26 13:02:53.000   43.024884283  -70.730767606   -22.9113   1   6   0.0097   0.0051   0.0282   0.0029  -0.0043  -0.0152   0.00   56.7
2021/10/26 13:02:54.000   43.024884334  -70.730767596   -22.9337   1   6   0.0096   0.0051   0.0282   0.0027  -0.0044  -0.0152   0.00   57.2
2021/10/26 13:02:55.000   43.024884346  -70.730767586   -22.9304   1   6   0.0096   0.0048   0.0282   0.0031  -0.0043  -0.0152   0.00   57.6
2021/10/26 13:02:56.000   43.024884332  -70.730767598   -22.9255   1   6   0.0096   0.0051   0.0282   0.0030  -0.0043  -0.0152   0.00   58.1
2021/10/26 13:02:57.000   43.024884337  -70.730767597   -22.9326   1   6   0.0098   0.0051   0.0282   0.0029  -0.0044  -0.0152   0.00   58.5
2021/10/26 13:02:58.000   43.024884320  -70.730767572   -22.9377   1   6   0.0097   0.0051   0.0282   0.0026  -0.0045  -0.0152   0.00   58.9
2021/10/26 13:02:59.000   43.024884277  -70.730767571   -22.9165   1   6   0.0098   0.0054   0.0282   0.0026  -0.0044  -0.0152   0.00   59.3
2021/10/26 13:03:00.000   43.024884323  -70.730767605   -22.9247   1   6   0.0098   0.0053   0.0282   0.0025  -0.0044  -0.0152   0.00   59.6
2021/10/26 13:03:01.000   43.024884293  -70.730767571   -22.9156   1   6   0.0098   0.0053   0.0282   0.0028  -0.0044  -0.0152   0.00   59.9
2021/10/26 13:03:02.000   43.024884317  -70.730767558   -22.9281   1   6   0.0097   0.0051   0.0282   0.0029  -0.0043  -0.0152   0.00   60.2
2021/10/26 13:03:03.000   43.024884329  -70.730767538   -22.9246   1   6   0.0097   0.0050   0.0282   0.0028  -0.0043  -0.0152   0.00   60.4
2021/10/26 13:03:04.000   43.024884327  -70.730767519   -22.9238   1   6   0.0096   0.0049   0.0282   0.0031  -0.0043  -0.0152   0.00   60.7
2021/10/26 13:03:05.000   43.024884332  -70.730767536   -22.9422   1   6   0.0097   0.0049   0.0282   0.0030  -0.0043  -0.0152   0.00   61.0
2021/10/26 13:03:06.000   43.024884333  -70.730767528   -22.9340   1   6   0.0098   0.0051   0.0282   0.0027  -0.0044  -0.0152   0.00   61.2
2021/10/26 13:03:07.000   43.024884344  -70.730767530   -22.9337   1   6   0.0096   0.0054   0.0282   0.0029  -0.0043  -0.0152   0.00   61.5
2021/10/26 13:03:08.000   43.024884377  -70.730767510   -22.9411   1   6   0.0097   0.0053   0.0282   0.0027  -0.0043  -0.0152   0.00   61.7
2021/10/26 13:03:09.000   43.024884392  -70.730767492   -22.9448   1   6   0.0097   0.0053   0.0282   0.0028  -0.0044  -0.0152   0.00   62.0
2021/10/26 13:03:10.000   43.024884418  -70.730767482   -22.9481   1   6   0.0097   0.0049   0.0282   0.0027  -0.0043  -0.0152   0.00   62.2
2021/10/26 13:03:11.000   43.024884429  -70.730767487   -22.9461   1   6   0.0097   0.0051   0.0282   0.0026  -0.0043  -0.0152   0.00   62.5
2021/10/26 13:03:12.000   43.024884460  -70.730767479   -22.9508   1   6   0.0096   0.0049   0.0282   0.0031  -0.0041  -0.0152   0.00   62.7
2021/10/26 13:03:13.000   43.024884468  -70.730767495   -22.9532   1   6   0.0096   0.0047   0.0282   0.0029  -0.0043  -0.0152   0.00   63.0
2021/10/26 13:03:14.000   43.024884509  -70.730767521   -22.9594   1   6   0.0097   0.0047   0.0282   0.0030  -0.0042  -0.0152   0.00   63.2
2021/10/26 13:03:15.000   43.024884525  -70.730767510   -22.9670   1   6   0.0097   0.0050   0.0282   0.0029  -0.0042  -0.0152   0.00   63.5
2021/10/26 13:03:16.000   43.024884576  -70.730767524   -22.9694   1   6   0.0098   0.0052   0.0282   0.0028  -0.0042  -0.0152   0.00   63.7
2021/10/26 13:03:17.000   43.024884633  -70.730767535   -22.9885   1   6   0.0097   0.0050   0.0282   0.0026  -0.0042  -0.0152   0.00   64.0
2021/10/26 13:03:18.000   43.024884666  -70.730767520   -23.0017   1   6   0.0098   0.0049   0.0282   0.0028  -0.0042  -0.0152   0.00   64.3
2021/10/26 13:03:19.000   43.024884612  -70.730767541   -22.9836   1   6   0.0096   0.0047   0.0282   0.0030  -0.0041  -0.0152   0.00   64.5
2021/10/26 13:03:20.000   43.024884615  -70.730767529   -22.9794   1   6   0.0097   0.0053   0.0282   0.0026  -0.0042  -0.0152   0.00   64.8
2021/10/26 13:03:21.000   43.024884584  -70.730767524   -22.9764   1   6   0.0098   0.0049   0.0282   0.0027  -0.0043  -0.0152   0.00   65.1
2021/10/26 13:03:22.000   43.024884602  -70.730767518   -22.9766   1   6   0.0097   0.0052   0.0282   0.0025  -0.0043  -0.0152   0.00   65.5
2021/10/26 13:03:23.000   43.024884532  -70.730767521   -22.9550   1   6   0.0096   0.0049   0.0282   0.0031  -0.0042  -0.0152   0.00   65.8
2021/10/26 13:03:24.000   43.024884538  -70.730767523   -22.9626   1   6   0.0098   0.0052   0.0282   0.0025  -0.0042  -0.0152   0.00   66.2
2021/10/26 13:03:25.000   43.024884534  -70.730767528   -22.9652   1   6   0.0096   0.0051   0.0282   0.0029  -0.0041  -0.0152   0.00   66.5
2021/10/26 13:03:26.000   43.024884563  -70.730767499   -22.9662   1   6   0.0097   0.0052   0.0283   0.0027  -0.0042  -0.0151   0.00   66.7
2021/10/26 13:03:27.000   43.024884515  -70.730767520   -22.9503   1   6   0.0097   0.0048   0.0282   0.0029  -0.0041  -0.0152   0.00   66.9
2021/10/26 13:03:28.000   43.024884489  -70.730767535   -22.9532   1   6   0.0096   0.0046   0.0282   0.0030  -0.0040  -0.0152   0.00   67.1
2021/10/26 13:03:29.000   43.024884463  -70.730767591   -22.9504   1   6   0.0096   0.0052   0.0282   0.0025  -0.0041  -0.0152   0.00   67.2
2021/10/26 13:03:30.000   43.024884452  -70.730767586   -22.9477   1   6   0.0097   0.0052   0.0282   0.0026  -0.0041  -0.0152   0.00   67.2
2021/10/26 13:03:31.000   43.024884419  -70.730767624   -22.9429   1   6   0.0096   0.0050   0.0282   0.0026  -0.0042  -0.0152   0.00   67.2
2021/10/26 13:03:32.000   43.024884384  -70.730767633   -22.9211   1   6   0.0096   0.0050   0.0282   0.0028  -0.0041  -0.0152   0.00   67.2
2021/10/26 13:03:33.000   43.024884342  -70.730767639   -22.9097   1   6   0.0098   0.0051   0.0282   0.0027  -0.0040  -0.0152   0.00   67.3
2021/10/26 13:03:34.000   43.024884331  -70.730767648   -22.9029   1   6   0.0097   0.0050   0.0282   0.0027  -0.0041  -0.0152   0.00   67.3
2021/10/26 13:03:35.000   43.024884306  -70.730767635   -22.9024   1   6   0.0096   0.0051   0.0282   0.0029  -0.0041  -0.0152   0.00   67.2
2021/10/26 13:03:36.000   43.024884325  -70.730767644   -22.9044   1   6   0.0097   0.0050   0.0282   0.0026  -0.0040  -0.0152   0.00   67.1
2021/10/26 13:03:37.000   43.024884311  -70.730767676   -22.9018   1   6   0.0098   0.0052   0.0282   0.0027  -0.0040  -0.0152   0.00   67.1
2021/10/26 13:03:38.000   43.024884321  -70.730767706   -22.9150   1   6   0.0096   0.0052   0.0282   0.0028  -0.0041  -0.0152   0.00   67.0
2021/10/26 13:03:39.000   43.024884296  -70.730767678   -22.9079   1   6   0.0097   0.0048   0.0282   0.0028  -0.0041  -0.0152   0.00   66.9
2021/10/26 13:03:40.000   43.024884289  -70.730767671   -22.9008   1   6   0.0095   0.0053   0.0282   0.0026  -0.0040  -0.0152   0.00   66.7
2021/10/26 13:03:41.000   43.024884375  -70.730767644   -22.9116   1   6   0.0096   0.0050   0.0283   0.0028  -0.0040  -0.0152   0.00   66.6
2021/10/26 13:03:42.000   43.024884343  -70.730767646   -22.9158   1   6   0.0096   0.0052   0.0283   0.0023  -0.0042  -0.0151   0.00   66.5
2021/10/26 13:03:43.000   43.024884354  -70.730767619   -22.9146   1   6   0.0096   0.0054   0.0282   0.0024  -0.0041  -0.0152   0.00   66.3
2021/10/26 13:03:44.000   43.024884281  -70.730767653   -22.8925   1   6   0.0096   0.0051   0.0282   0.0027  -0.0041  -0.0152   0.00   66.0
2021/10/26 13:03:45.000   43.024884243  -70.730767650   -22.8878   1   6   0.0097   0.0051   0.0283   0.0027  -0.0039  -0.0151   0.00   65.7
2021/10/26 13:03:46.000   43.024884177  -70.730767663   -22.8726   1   6   0.0098   0.0050   0.0282   0.0025  -0.0041  -0.0151   0.00   65.4
2021/10/26 13:03:47.000   43.024884167  -70.730767647   -22.8608   1   6   0.0098   0.0050   0.0283   0.0026  -0.0039  -0.0151   0.00   65.1
2021/10/26 13:03:48.000   43.024884167  -70.730767644   -22.8738   1   6   0.0097   0.0049   0.0282   0.0026  -0.0040  -0.0151   0.00   64.8
2021/10/26 13:03:49.000   43.024884203  -70.730767645   -22.8770   1   6   0.0097   0.0050   0.0283   0.0027  -0.0039  -0.0151   0.00   64.5
2021/10/26 13:03:50.000   43.024884183  -70.730767631   -22.8668   1   6   0.0097   0.0052   0.0283   0.0026  -0.0040  -0.0151   0.00   64.2
2021/10/26 13:03:51.000   43.024884212  -70.730767617   -22.8649   1   6   0.0097   0.0050   0.0282   0.0027  -0.0039  -0.0152   0.00   64.1
2021/10/26 13:03:52.000   43.024884190  -70.730767612   -22.8603   1   6   0.0098   0.0050   0.0283   0.0025  -0.0040  -0.0151   0.00   63.9
2021/10/26 13:03:53.000   43.024884188  -70.730767580   -22.8616   1   6   0.0097   0.0054   0.0282   0.0025  -0.0040  -0.0151   0.00   63.8
2021/10/26 13:03:54.000   43.024884179  -70.730767581   -22.8454   1   6   0.0097   0.0053   0.0283   0.0024  -0.0039  -0.0151   0.00   63.7
2021/10/26 13:03:55.000   43.024884181  -70.730767600   -22.8422   1   6   0.0096   0.0049   0.0283   0.0031  -0.0037  -0.0151   0.00   63.5
2021/10/26 13:03:56.000   43.024884149  -70.730767623   -22.8337   1   6   0.0097   0.0051   0.0282   0.0024  -0.0039  -0.0151   0.00   63.4
2021/10/26 13:03:57.000   43.024884160  -70.730767607   -22.8333   1   6   0.0096   0.0051   0.0283   0.0028  -0.0039  -0.0151   0.00   63.3
2021/10/26 13:03:58.000   43.024884076  -70.730767605   -22.8099   1   6   0.0097   0.0050   0.0283   0.0026  -0.0039  -0.0151   0.00   63.2
2021/10/26 13:03:59.000   43.024884089  -70.730767609   -22.8170   1   6   0.0096   0.0049   0.0282   0.0027  -0.0038  -0.0151   0.00   63.0
2021/10/26 13:04:00.000   43.024884093  -70.730767575   -22.8222   1   6   0.0097   0.0052   0.0283   0.0022  -0.0040  -0.0151   0.00   62.7
2021/10/26 13:04:01.000   43.024884035  -70.730767542   -22.8012   1   6   0.0097   0.0049   0.0282   0.0026  -0.0039  -0.0151   0.00   62.4
2021/10/26 13:04:02.000   43.024884032  -70.730767594   -22.8160   1   6   0.0095   0.0048   0.0282   0.0031  -0.0037  -0.0151   0.00   62.3
2021/10/26 13:04:03.000   43.024884048  -70.730767578   -22.8172   1   6   0.0098   0.0053   0.0283   0.0023  -0.0039  -0.0151   0.00   62.1
2021/10/26 13:04:04.000   43.024884021  -70.730767563   -22.8192   1   6   0.0095   0.0048   0.0283   0.0029  -0.0038  -0.0151   0.00   61.9
2021/10/26 13:04:05.000   43.024883964  -70.730767564   -22.8019   1   6   0.0096   0.0051   0.0283   0.0025  -0.0039  -0.0151   0.00   61.7
2021/10/26 13:04:06.000   43.024884018  -70.730767530   -22.8156   1   6   0.0097   0.0051   0.0282   0.0023  -0.0040  -0.0151   0.00   61.6
2021/10/26 13:04:07.000   43.024884025  -70.730767522   -22.8167   1   6   0.0095   0.0051   0.0282   0.0029  -0.0038  -0.0152   0.00   61.4
2021/10/26 13:04:08.000   43.024884019  -70.730767499   -22.8115   1   6   0.0097   0.0054   0.0283   0.0025  -0.0038  -0.0151   0.00   61.3
2021/10/26 13:04:09.000   43.024884026  -70.730767490   -22.8127   1   6   0.0097   0.0051   0.0283   0.0024  -0.0038  -0.0151   0.00   61.1
2021/10/26 13:04:10.000   43.024884058  -70.730767494   -22.8187   1   6   0.0095   0.0052   0.0283   0.0026  -0.0038  -0.0151   0.00   61.0
2021/10/26 13:04:11.000   43.024884074  -70.730767454   -22.8257   1   6   0.0097   0.0051   0.0283   0.0024  -0.0038  -0.0151   0.00   60.9
2021/10/26 13:04:12.000   43.024884103  -70.730767415   -22.8253   1   6   0.0096   0.0051   0.0283   0.0026  -0.0038  -0.0151   0.00   60.8
2021/10/26 13:04:13.000   43.024884098  -70.730767427   -22.8212   1   6   0.0097   0.0049   0.0283   0.0025  -0.0037  -0.0151   0.00   60.7
2021/10/26 13:04:14.000   43.024884153  -70.730767452   -22.8504   1   6   0.0096   0.0052   0.0283   0.0024  -0.0038  -0.0151   0.00   60.7
2021/10/26 13:04:15.000   43.024884172  -70.730767427   -22.8525   1   6   0.0096   0.0048   0.0282   0.0026  -0.0037  -0.0151   0.00   60.6
2021/10/26 13:04:16.000   43.024884147  -70.730767457   -22.8429   1   6   0.0096   0.0051   0.0283   0.0022  -0.0038  -0.0151   0.00   60.5
2021/10/26 13:04:17.000   43.024884184  -70.730767463   -22.8585   1   6   0.0096   0.0048   0.0283   0.0027  -0.0037  -0.0151   0.00   60.5
2021/10/26 13:04:18.000   43.024884168  -70.730767405   -22.8512   1   6   0.0097   0.0051   0.0283   0.0024  -0.0039  -0.0151   0.00   60.4
2021/10/26 13:04:19.000   43.024884180  -70.730767393   -22.8473   1   6   0.0096   0.0050   0.0282   0.0023  -0.0037  -0.0151   0.00   60.5
2021/10/26 13:04:20.000   43.024884197  -70.730767387   -22.8566   1   6   0.0095   0.0050   0.0282   0.0028  -0.0036  -0.0151   0.00   60.5
2021/10/26 13:04:21.000   43.024884199  -70.730767396   -22.8531   1   6   0.0095   0.0052   0.0283   0.0025  -0.0037  -0.0151   0.00   60.7
2021/10/26 13:04:22.000   43.024884181  -70.730767401   -22.8452   1   6   0.0095   0.0047   0.0283   0.0029  -0.0037  -0.0151   0.00   60.8
2021/10/26 13:04:23.000   43.024884213  -70.730767383   -22.8552   1   6   0.0097   0.0049   0.0283   0.0024  -0.0038  -0.0151   0.00   61.1
2021/10/26 13:04:24.000   43.024884220  -70.730767401   -22.8535   1   6   0.0098   0.0053   0.0283   0.0021  -0.0038  -0.0150   0.00   61.3
2021/10/26 13:04:25.000   43.024884261  -70.730767403   -22.8694   1   6   0.0096   0.0050   0.0283   0.0028  -0.0035  -0.0151   0.00   61.6
2021/10/26 13:04:26.000   43.024884242  -70.730767369   -22.8597   1   6   0.0097   0.0050   0.0283   0.0024  -0.0038  -0.0151   0.00   61.8
2021/10/26 13:04:27.000   43.024884242  -70.730767364   -22.8648   1   6   0.0097   0.0050   0.0283   0.0022  -0.0037  -0.0151   0.00   62.1
2021/10/26 13:04:28.000   43.024884231  -70.730767392   -22.8612   1   6   0.0097   0.0052   0.0283   0.0024  -0.0037  -0.0151   0.00   62.3
2021/10/26 13:04:29.000   43.024884241  -70.730767387   -22.8688   1   6   0.0096   0.0050   0.0283   0.0027  -0.0036  -0.0151   0.00   62.6
2021/10/26 13:04:30.000   43.024884184  -70.730767417   -22.8451   1   6   0.0097   0.0049   0.0283   0.0025  -0.0036  -0.0150   0.00   62.7
2021/10/26 13:04:31.000   43.024884219  -70.730767403   -22.8663   1   6   0.0095   0.0048   0.0283   0.0027  -0.0036  -0.0151   0.00   62.9
2021/10/26 13:04:32.000   43.024884210  -70.730767408   -22.8620   1   6   0.0068   0.0035   0.0200   0.0017  -0.0025  -0.0107   0.00    3.0
2021/10/26 13:04:33.000   43.024884176  -70.730767362   -22.8570   1   6   0.0067   0.0036   0.0200   0.0018  -0.0025  -0.0106   0.00    3.0
2021/10/26 13:04:34.000   43.024884184  -70.730767368   -22.8548   1   6   0.0068   0.0035   0.0200   0.0017  -0.0026  -0.0106   0.00    3.1
2021/10/26 13:04:35.000   43.024884173  -70.730767348   -22.8493   1   6   0.0068   0.0035   0.0200   0.0019  -0.0025  -0.0107   0.00    3.1
2021/10/26 13:04:36.000   43.024884214  -70.730767358   -22.8578   1   6   0.0067   0.0036   0.0200   0.0018  -0.0025  -0.0107   0.00    3.1
2021/10/26 13:04:37.000   43.024884231  -70.730767359   -22.8783   1   6   0.0067   0.0037   0.0200   0.0016  -0.0025  -0.0107   0.00    3.1
2021/10/26 13:04:38.000   43.024884195  -70.730767368   -22.8651   1   6   0.0068   0.0034   0.0200   0.0016  -0.0025  -0.0106   0.00    3.1
2021/10/26 13:04:39.000   43.024884128  -70.730767338   -22.8499   1   6   0.0068   0.0035   0.0200   0.0018  -0.0025  -0.0107   0.00    3.1
2021/10/26 13:04:40.000   43.024884128  -70.730767347   -22.8423   1   6   0.0067   0.0036   0.0200   0.0016  -0.0025  -0.0107   0.00    3.1
2021/10/26 13:04:41.000   43.024884118  -70.730767357   -22.8339   1   6   0.0066   0.0035   0.0200   0.0019  -0.0024  -0.0107   0.00    3.1
2021/10/26 13:04:42.000   43.024884118  -70.730767370   -22.8394   1   6   0.0068   0.0036   0.0200   0.0016  -0.0025  -0.0106   0.00    3.1
2021/10/26 13:04:43.000   43.024884132  -70.730767379   -22.8488   1   6   0.0068   0.0035   0.0200   0.0017  -0.0025  -0.0106   0.00    3.1
2021/10/26 13:04:44.000   43.024884141  -70.730767398   -22.8545   1   6   0.0067   0.0034   0.0200   0.0019  -0.0024  -0.0107   0.00    3.1
2021/10/26 13:04:45.000   43.024884154  -70.730767403   -22.8733   1   6   0.0067   0.0036   0.0200   0.0018  -0.0025  -0.0106   0.00    3.1
2021/10/26 13:04:46.000   43.024884164  -70.730767393   -22.8816   1   6   0.0067   0.0036   0.0200   0.0017  -0.0024  -0.0106   0.00    3.1
2021/10/26 13:04:47.000   43.024884170  -70.730767377   -22.8887   1   6   0.0067   0.0035   0.0200   0.0019  -0.0024  -0.0106   0.00    3.1
2021/10/26 13:04:48.000   43.024884148  -70.730767362   -22.8864   1   6   0.0068   0.0034   0.0200   0.0018  -0.0024  -0.0106   0.00    3.2
2021/10/26 13:04:49.000   43.024884199  -70.730767348   -22.9070   1   6   0.0068   0.0036   0.0200   0.0019  -0.0024  -0.0106   0.00    3.2
