% program   : RTKPOST ver.2.4.2
% inp file  : C:\Users\mm1723\OneDrive - USNH\Documents\Survey Data\PS_Deployment_20210908\20210908 (pre)\Rover\1007251a.21o
% inp file  : C:\Users\mm1723\OneDrive - USNH\Documents\Survey Data\PS_Deployment_20210908\20210908 (pre)\Base\nhun251\nhun2510.21o
% inp file  : C:\Users\mm1723\OneDrive - USNH\Documents\Survey Data\PS_Deployment_20210908\20210908 (pre)\Base\nhun251\nhun2510.21n
% inp file  : C:\Users\mm1723\OneDrive - USNH\Documents\Survey Data\PS_Deployment_20210908\20210908 (pre)\Base\nhun251\igs21743.sp3
% obs start : 2021/09/08 23:16:44.0 GPST (week2174 343004.0s)
% obs end   : 2021/09/09 00:12:22.0 GPST (week2174 346342.0s)
% pos mode  : kinematic
% freqs     : L1+L2+L5
% solution  : combined
% elev mask : 15.0 deg
% dynamics  : off
% tidecorr  : off
% ionos opt : broadcast
% tropo opt : saastamoinen
% ephemeris : broadcast
% navi sys  : gps glonass galileo qzss
% amb res   : continuous
% amb glo   : on
% val thres : 3.0
% antenna1  :                       ( 0.0000  0.0000  0.0000)
% antenna2  :                       ( 0.0000  0.0000  0.0000)
% ref pos   : 43.142559483  -70.951909686     7.9230
%
% (lat/lon/height=WGS84/ellipsoidal,Q=1:fix,2:float,3:sbas,4:dgps,5:single,6:ppp,ns=# of satellites)
%  GPST                  latitude(deg) longitude(deg)  height(m)   Q  ns   sdn(m)   sde(m)   sdu(m)  sdne(m)  sdeu(m)  sdun(m) age(s)  ratio
2021/09/08 23:16:44.000   43.027474075  -70.729665621   -23.8946   1   7   0.0039   0.0031   0.0086  -0.0013  -0.0026   0.0024   0.00    4.5
2021/09/08 23:16:45.000   43.027474060  -70.729665625   -23.8963   1   7   0.0038   0.0032   0.0086  -0.0013  -0.0026   0.0024   0.00    4.9
2021/09/08 23:16:46.000   43.027474074  -70.729665627   -23.8935   1   7   0.0038   0.0031   0.0086  -0.0014  -0.0025   0.0023   0.00    4.8
2021/09/08 23:16:47.000   43.027474084  -70.729665656   -23.8931   1   7   0.0039   0.0032   0.0086  -0.0013  -0.0026   0.0024   0.00    4.6
2021/09/08 23:16:48.000   43.027474081  -70.729665650   -23.8937   1   7   0.0036   0.0031   0.0086  -0.0013  -0.0025   0.0022   0.00    4.5
2021/09/08 23:16:49.000   43.027471458  -70.729663532   -23.4605   2   8   0.0186   0.0228   0.0361   0.0093  -0.0107  -0.0203   0.00    2.5
2021/09/08 23:16:50.000   43.027474074  -70.729665632   -23.8959   1   8   0.0037   0.0031   0.0082  -0.0012  -0.0030   0.0028   0.00    3.5
2021/09/08 23:16:51.000   43.027474092  -70.729665643   -23.8932   1   8   0.0037   0.0032   0.0082  -0.0012  -0.0031   0.0028   0.00    4.2
2021/09/08 23:16:52.000   43.027474069  -70.729665632   -23.8978   1   8   0.0037   0.0032   0.0082  -0.0009  -0.0030   0.0029   0.00    4.8
2021/09/08 23:16:53.000   43.027474092  -70.729665609   -23.8975   1   8   0.0038   0.0033   0.0082  -0.0011  -0.0029   0.0027   0.00    4.9
2021/09/08 23:16:54.000   43.027474110  -70.729665625   -23.8944   1   8   0.0038   0.0030   0.0082  -0.0007  -0.0030   0.0029   0.00    4.8
2021/09/08 23:16:55.000   43.027474073  -70.729665608   -23.8978   1   8   0.0039   0.0030   0.0082  -0.0012  -0.0028   0.0029   0.00    4.9
2021/09/08 23:16:56.000   43.027474071  -70.729665647   -23.8952   1   8   0.0039   0.0032   0.0082  -0.0008  -0.0030   0.0028   0.00    5.1
2021/09/08 23:16:57.000   43.027474086  -70.729665614   -23.8949   1   8   0.0038   0.0029   0.0082  -0.0011  -0.0029   0.0029   0.00    5.2
2021/09/08 23:16:58.000   43.027474067  -70.729665616   -23.8917   1   8   0.0038   0.0031   0.0082  -0.0009  -0.0030   0.0030   0.00    5.4
2021/09/08 23:16:59.000   43.027474077  -70.729665630   -23.8929   1   8   0.0038   0.0029   0.0082  -0.0013  -0.0029   0.0029   0.00    5.4
2021/09/08 23:17:00.000   43.027474088  -70.729665629   -23.8917   1   8   0.0037   0.0030   0.0082  -0.0013  -0.0028   0.0028   0.00    5.4
2021/09/08 23:17:01.000   43.027474082  -70.729665616   -23.8908   1   8   0.0037   0.0030   0.0081  -0.0011  -0.0028   0.0028   0.00    5.5
2021/09/08 23:17:02.000   43.027474081  -70.729665635   -23.8930   1   8   0.0036   0.0031   0.0082  -0.0006  -0.0028   0.0028   0.00    5.6
2021/09/08 23:17:03.000   43.027474074  -70.729665627   -23.8943   1   8   0.0036   0.0030   0.0082  -0.0009  -0.0028   0.0027   0.00    5.7
2021/09/08 23:17:04.000   43.027474103  -70.729665637   -23.8871   1   8   0.0036   0.0032   0.0082  -0.0012  -0.0029   0.0028   0.00    5.7
2021/09/08 23:17:05.000   43.027474074  -70.729665625   -23.8921   1   8   0.0039   0.0029   0.0082  -0.0012  -0.0029   0.0029   0.00    5.8
2021/09/08 23:17:06.000   43.027474077  -70.729665628   -23.8913   1   8   0.0036   0.0032   0.0082  -0.0005  -0.0030   0.0028   0.00    5.8
2021/09/08 23:17:07.000   43.027474076  -70.729665641   -23.8906   1   8   0.0039   0.0030   0.0082  -0.0010  -0.0030   0.0029   0.00    5.8
2021/09/08 23:17:08.000   43.027474051  -70.729665618   -23.8908   1   8   0.0037   0.0029   0.0082  -0.0013  -0.0029   0.0028   0.00    5.8
2021/09/08 23:17:09.000   43.027474073  -70.729665624   -23.8882   1   8   0.0036   0.0033   0.0082  -0.0013  -0.0028   0.0027   0.00    5.8
2021/09/08 23:17:10.000   43.027474093  -70.729665628   -23.8884   1   8   0.0038   0.0030   0.0082  -0.0008  -0.0029   0.0029   0.00    5.9
2021/09/08 23:17:11.000   43.027474061  -70.729665609   -23.8891   1   8   0.0038   0.0030   0.0082  -0.0008  -0.0031   0.0030   0.00    5.9
2021/09/08 23:17:12.000   43.027474058  -70.729665620   -23.8797   1   8   0.0039   0.0030   0.0082  -0.0012  -0.0030   0.0029   0.00    5.9
2021/09/08 23:17:13.000   43.027474086  -70.729665628   -23.8826   1   8   0.0039   0.0031   0.0082  -0.0011  -0.0030   0.0029   0.00    5.9
2021/09/08 23:17:14.000   43.027474054  -70.729665610   -23.8827   1   8   0.0035   0.0031   0.0081  -0.0010  -0.0030   0.0027   0.00    5.8
2021/09/08 23:17:15.000   43.027474073  -70.729665623   -23.8854   1   8   0.0039   0.0030   0.0082  -0.0010  -0.0029   0.0029   0.00    5.8
2021/09/08 23:17:16.000   43.027474072  -70.729665625   -23.8858   1   8   0.0037   0.0031   0.0082  -0.0011  -0.0029   0.0028   0.00    5.8
2021/09/08 23:17:17.000   43.027474077  -70.729665637   -23.8863   1   8   0.0037   0.0031   0.0082  -0.0012  -0.0030   0.0028   0.00    5.8
2021/09/08 23:17:18.000   43.027474063  -70.729665629   -23.8854   1   8   0.0039   0.0030   0.0082  -0.0014  -0.0031   0.0029   0.00    5.8
2021/09/08 23:17:19.000   43.027474085  -70.729665631   -23.8852   1   8   0.0037   0.0031   0.0082  -0.0008  -0.0028   0.0028   0.00    5.8
2021/09/08 23:17:20.000   43.027474085  -70.729665628   -23.8799   1   8   0.0039   0.0030   0.0082  -0.0010  -0.0030   0.0028   0.00    5.7
2021/09/08 23:17:21.000   43.027474097  -70.729665638   -23.8773   1   8   0.0038   0.0030   0.0082  -0.0008  -0.0029   0.0030   0.00    5.7
2021/09/08 23:17:22.000   43.027474088  -70.729665642   -23.8767   1   8   0.0037   0.0032   0.0082  -0.0008  -0.0029   0.0029   0.00    5.7
2021/09/08 23:17:23.000   43.027474088  -70.729665641   -23.8767   1   8   0.0038   0.0032   0.0082  -0.0012  -0.0030   0.0029   0.00    5.8
2021/09/08 23:17:24.000   43.027474086  -70.729665639   -23.8813   1   8   0.0041   0.0031   0.0082  -0.0011  -0.0031   0.0030   0.00    5.8
2021/09/08 23:17:25.000   43.027474097  -70.729665650   -23.8795   1   8   0.0036   0.0031   0.0082  -0.0012  -0.0029   0.0027   0.00    5.8
2021/09/08 23:17:26.000   43.027474093  -70.729665629   -23.8780   1   8   0.0054   0.0042   0.0115  -0.0017  -0.0042   0.0039   0.00    5.8
2021/09/08 23:17:27.000   43.027474102  -70.729665646   -23.8768   1   8   0.0058   0.0046   0.0115  -0.0008  -0.0043   0.0042   0.00    5.8
2021/09/08 23:17:28.000   43.027474104  -70.729665650   -23.8757   1   8   0.0053   0.0043   0.0116  -0.0003  -0.0039   0.0040   0.00    5.8
2021/09/08 23:17:29.000   43.027474087  -70.729665644   -23.8810   1   8   0.0057   0.0044   0.0115  -0.0014  -0.0043   0.0041   0.00    5.8
2021/09/08 23:17:30.000   43.027474125  -70.729665659   -23.8732   1   8   0.0053   0.0040   0.0116  -0.0013  -0.0041   0.0040   0.00    5.7
2021/09/08 23:17:31.000   43.027474113  -70.729665658   -23.8801   1   8   0.0049   0.0043   0.0115  -0.0010  -0.0041   0.0039   0.00    5.7
2021/09/08 23:17:32.000   43.027474108  -70.729665676   -23.8746   1   8   0.0054   0.0043   0.0116  -0.0017  -0.0040   0.0041   0.00    5.7
2021/09/08 23:17:33.000   43.027474101  -70.729665650   -23.8757   1   8   0.0053   0.0044   0.0116  -0.0013  -0.0043   0.0041   0.00    5.7
2021/09/08 23:17:34.000   43.027474119  -70.729665659   -23.8771   1   8   0.0055   0.0042   0.0116  -0.0013  -0.0040   0.0041   0.00    5.7
2021/09/08 23:17:35.000   43.027474108  -70.729665637   -23.8771   1   8   0.0051   0.0041   0.0116  -0.0017  -0.0041   0.0040   0.00    5.7
2021/09/08 23:17:36.000   43.027474113  -70.729665672   -23.8779   1   8   0.0052   0.0046   0.0116  -0.0009  -0.0042   0.0039   0.00    5.6
2021/09/08 23:17:37.000   43.027474113  -70.729665661   -23.8757   1   8   0.0058   0.0040   0.0116  -0.0016  -0.0042   0.0045   0.00    5.6
2021/09/08 23:17:38.000   43.027474125  -70.729665673   -23.8731   1   8   0.0060   0.0043   0.0116  -0.0016  -0.0041   0.0044   0.00    5.6
2021/09/08 23:17:39.000   43.027474121  -70.729665660   -23.8739   1   8   0.0050   0.0044   0.0116  -0.0012  -0.0042   0.0040   0.00    5.6
2021/09/08 23:17:40.000   43.027474109  -70.729665658   -23.8695   1   8   0.0055   0.0045   0.0116  -0.0014  -0.0040   0.0039   0.00    5.5
2021/09/08 23:17:41.000   43.027474116  -70.729665655   -23.8735   1   8   0.0053   0.0042   0.0116  -0.0013  -0.0038   0.0039   0.00    5.5
2021/09/08 23:17:42.000   43.027474128  -70.729665646   -23.8718   1   8   0.0052   0.0045   0.0117  -0.0013  -0.0040   0.0041   0.00    5.5
2021/09/08 23:17:43.000   43.027474114  -70.729665667   -23.8701   1   8   0.0048   0.0043   0.0115  -0.0013  -0.0040   0.0038   0.00    5.5
2021/09/08 23:17:44.000   43.027474124  -70.729665665   -23.8683   1   8   0.0057   0.0047   0.0116  -0.0012  -0.0043   0.0041   0.00    5.4
2021/09/08 23:17:45.000   43.027474109  -70.729665664   -23.8690   1   8   0.0050   0.0043   0.0116  -0.0015  -0.0040   0.0040   0.00    5.4
2021/09/08 23:17:46.000   43.027474106  -70.729665656   -23.8664   1   8   0.0053   0.0044   0.0115  -0.0010  -0.0039   0.0039   0.00    5.4
2021/09/08 23:17:47.000   43.027474092  -70.729665658   -23.8711   1   8   0.0051   0.0045   0.0116  -0.0016  -0.0042   0.0039   0.00    5.4
2021/09/08 23:17:48.000   43.027474110  -70.729665662   -23.8710   1   8   0.0051   0.0046   0.0116  -0.0013  -0.0043   0.0039   0.00    5.3
2021/09/08 23:17:49.000   43.027474089  -70.729665664   -23.8742   1   8   0.0053   0.0046   0.0115  -0.0010  -0.0041   0.0039   0.00    5.3
2021/09/08 23:17:50.000   43.027474088  -70.729665652   -23.8707   1   8   0.0052   0.0043   0.0116  -0.0012  -0.0040   0.0039   0.00    5.3
2021/09/08 23:17:51.000   43.027474089  -70.729665649   -23.8720   1   8   0.0050   0.0043   0.0115  -0.0008  -0.0042   0.0038   0.00    5.3
2021/09/08 23:17:52.000   43.027474085  -70.729665632   -23.8722   1   8   0.0052   0.0040   0.0115  -0.0020  -0.0042   0.0039   0.00    5.2
2021/09/08 23:17:53.000   43.027474095  -70.729665660   -23.8705   1   8   0.0052   0.0045   0.0116  -0.0020  -0.0042   0.0039   0.00    5.2
2021/09/08 23:17:54.000   43.027474070  -70.729665648   -23.8697   1   8   0.0054   0.0042   0.0115  -0.0014  -0.0041   0.0039   0.00    5.2
2021/09/08 23:17:55.000   43.027474083  -70.729665660   -23.8697   1   8   0.0056   0.0044   0.0116  -0.0020  -0.0041   0.0041   0.00    5.2
2021/09/08 23:17:56.000   43.027474087  -70.729665657   -23.8725   1   8   0.0052   0.0046   0.0117  -0.0016  -0.0040   0.0040   0.00    5.2
2021/09/08 23:17:57.000   43.027474094  -70.729665652   -23.8739   1   8   0.0054   0.0043   0.0116  -0.0021  -0.0043   0.0040   0.00    5.1
2021/09/08 23:17:58.000   43.027474078  -70.729665653   -23.8711   1   8   0.0057   0.0044   0.0116  -0.0015  -0.0041   0.0040   0.00    5.1
2021/09/08 23:17:59.000   43.027474070  -70.729665637   -23.8766   1   8   0.0058   0.0043   0.0116  -0.0017  -0.0040   0.0041   0.00    5.1
2021/09/08 23:18:00.000   43.027474066  -70.729665661   -23.8751   1   8   0.0055   0.0043   0.0116  -0.0018  -0.0044   0.0042   0.00    5.1
2021/09/08 23:18:01.000   43.027474068  -70.729665658   -23.8739   1   8   0.0054   0.0041   0.0116  -0.0009  -0.0042   0.0040   0.00    5.1
2021/09/08 23:18:02.000   43.027474067  -70.729665671   -23.8766   1   8   0.0052   0.0042   0.0116  -0.0017  -0.0043   0.0040   0.00    5.1
2021/09/08 23:18:03.000   43.027474086  -70.729665663   -23.8762   1   8   0.0051   0.0043   0.0115  -0.0009  -0.0042   0.0040   0.00    5.1
2021/09/08 23:18:04.000   43.027474074  -70.729665662   -23.8727   1   8   0.0057   0.0042   0.0116  -0.0018  -0.0042   0.0042   0.00    5.0
2021/09/08 23:18:05.000   43.027474083  -70.729665669   -23.8753   1   8   0.0049   0.0043   0.0115  -0.0010  -0.0040   0.0037   0.00    5.0
2021/09/08 23:18:06.000   43.027474062  -70.729665658   -23.8753   1   8   0.0051   0.0041   0.0116  -0.0016  -0.0042   0.0040   0.00    5.0
2021/09/08 23:18:07.000   43.027474082  -70.729665652   -23.8736   1   8   0.0056   0.0044   0.0116  -0.0015  -0.0041   0.0041   0.00    4.9
2021/09/08 23:18:08.000   43.027474054  -70.729665643   -23.8736   1   8   0.0048   0.0042   0.0115  -0.0014  -0.0040   0.0037   0.00    4.9
2021/09/08 23:18:09.000   43.027474071  -70.729665652   -23.8726   1   8   0.0050   0.0045   0.0115  -0.0015  -0.0040   0.0038   0.00    4.9
2021/09/08 23:18:10.000   43.027474065  -70.729665656   -23.8721   1   8   0.0054   0.0042   0.0116  -0.0012  -0.0038   0.0039   0.00    4.9
2021/09/08 23:18:11.000   43.027474070  -70.729665653   -23.8702   1   8   0.0054   0.0044   0.0116  -0.0018  -0.0040   0.0039   0.00    4.8
2021/09/08 23:18:12.000   43.027474086  -70.729665635   -23.8767   1   8   0.0054   0.0041   0.0115  -0.0021  -0.0042   0.0041   0.00    4.8
2021/09/08 23:18:13.000   43.027474084  -70.729665628   -23.8757   1   8   0.0050   0.0043   0.0115  -0.0014  -0.0041   0.0038   0.00    4.8
2021/09/08 23:18:14.000   43.027474081  -70.729665645   -23.8784   1   8   0.0054   0.0044   0.0116  -0.0016  -0.0041   0.0040   0.00    4.8
2021/09/08 23:18:15.000   43.027474098  -70.729665644   -23.8824   1   8   0.0053   0.0042   0.0115  -0.0020  -0.0040   0.0040   0.00    4.8
2021/09/08 23:18:16.000   43.027474092  -70.729665670   -23.8785   1   8   0.0059   0.0040   0.0116  -0.0018  -0.0041   0.0043   0.00    4.7
2021/09/08 23:18:17.000   43.027474087  -70.729665660   -23.8794   1   8   0.0050   0.0042   0.0115  -0.0017  -0.0041   0.0039   0.00    4.7
2021/09/08 23:18:18.000   43.027474074  -70.729665649   -23.8818   1   8   0.0053   0.0041   0.0115  -0.0019  -0.0041   0.0039   0.00    4.7
2021/09/08 23:18:19.000   43.027474089  -70.729665660   -23.8771   1   8   0.0058   0.0042   0.0117  -0.0016  -0.0039   0.0042   0.00    4.7
2021/09/08 23:18:20.000   43.027474112  -70.729665663   -23.8819   1   8   0.0057   0.0045   0.0116  -0.0005  -0.0043   0.0042   0.00    4.6
2021/09/08 23:18:21.000   43.027474079  -70.729665629   -23.8800   1   8   0.0051   0.0047   0.0115   0.0006  -0.0042   0.0037   0.00    4.6
2021/09/08 23:18:22.000   43.027474073  -70.729665642   -23.8816   1   8   0.0052   0.0043   0.0116  -0.0015  -0.0041   0.0040   0.00    4.6
2021/09/08 23:18:23.000   43.027474094  -70.729665661   -23.8786   1   8   0.0053   0.0041   0.0116  -0.0022  -0.0041   0.0039   0.00    4.6
2021/09/08 23:18:24.000   43.027474097  -70.729665672   -23.8722   1   8   0.0054   0.0044   0.0116  -0.0020  -0.0041   0.0040   0.00    4.5
2021/09/08 23:18:25.000   43.027474091  -70.729665672   -23.8771   1   8   0.0055   0.0042   0.0114  -0.0014  -0.0044   0.0040   0.00    4.5
2021/09/08 23:18:26.000   43.027474087  -70.729665681   -23.8797   1   8   0.0058   0.0043   0.0116  -0.0014  -0.0043   0.0042   0.00    4.5
2021/09/08 23:18:27.000   43.027474067  -70.729665672   -23.8775   1   8   0.0052   0.0042   0.0115  -0.0018  -0.0040   0.0037   0.00    4.5
2021/09/08 23:18:28.000   43.027474090  -70.729665662   -23.8768   1   8   0.0049   0.0042   0.0115  -0.0019  -0.0039   0.0036   0.00    4.4
2021/09/08 23:18:29.000   43.027474080  -70.729665671   -23.8787   1   8   0.0053   0.0044   0.0115  -0.0014  -0.0042   0.0038   0.00    4.4
2021/09/08 23:18:30.000   43.027474066  -70.729665677   -23.8777   1   8   0.0053   0.0041   0.0116  -0.0019  -0.0040   0.0040   0.00    4.4
2021/09/08 23:18:31.000   43.027474072  -70.729665673   -23.8834   1   8   0.0052   0.0043   0.0114  -0.0008  -0.0043   0.0039   0.00    4.4
2021/09/08 23:18:32.000   43.027474091  -70.729665662   -23.8839   1   8   0.0053   0.0042   0.0114  -0.0018  -0.0041   0.0038   0.00    4.4
2021/09/08 23:18:33.000   43.027474071  -70.729665658   -23.8837   1   8   0.0055   0.0043   0.0116  -0.0019  -0.0038   0.0040   0.00    4.3
2021/09/08 23:18:34.000   43.027474054  -70.729665662   -23.8847   1   8   0.0059   0.0043   0.0116  -0.0017  -0.0041   0.0041   0.00    4.3
2021/09/08 23:18:35.000   43.027474053  -70.729665691   -23.8823   1   8   0.0052   0.0042   0.0116  -0.0017  -0.0040   0.0041   0.00    4.3
2021/09/08 23:18:36.000   43.027474087  -70.729665664   -23.8793   1   8   0.0053   0.0046   0.0116  -0.0011  -0.0040   0.0039   0.00    4.3
2021/09/08 23:18:37.000   43.027474082  -70.729665695   -23.8769   1   8   0.0051   0.0044   0.0116  -0.0019  -0.0041   0.0039   0.00    4.2
2021/09/08 23:18:38.000   43.027474090  -70.729665686   -23.8800   1   8   0.0053   0.0045   0.0116  -0.0017  -0.0042   0.0041   0.00    4.2
2021/09/08 23:18:39.000   43.027474104  -70.729665665   -23.8794   1   8   0.0054   0.0043   0.0115  -0.0012  -0.0044   0.0041   0.00    4.2
2021/09/08 23:18:40.000   43.027474092  -70.729665688   -23.8821   1   8   0.0057   0.0042   0.0116  -0.0014  -0.0040   0.0042   0.00    4.2
2021/09/08 23:18:41.000   43.027474088  -70.729665670   -23.8813   1   8   0.0053   0.0045   0.0116  -0.0018  -0.0041   0.0039   0.00    4.1
2021/09/08 23:18:42.000   43.027474102  -70.729665675   -23.8800   1   8   0.0054   0.0045   0.0116  -0.0011  -0.0042   0.0041   0.00    4.1
2021/09/08 23:18:43.000   43.027474118  -70.729665685   -23.8827   1   8   0.0055   0.0041   0.0115  -0.0022  -0.0040   0.0040   0.00    4.1
2021/09/08 23:18:44.000   43.027474069  -70.729665655   -23.8806   1   8   0.0053   0.0041   0.0116  -0.0017  -0.0039   0.0041   0.00    4.1
2021/09/08 23:18:45.000   43.027474107  -70.729665664   -23.8807   1   8   0.0053   0.0047   0.0117  -0.0013  -0.0042   0.0040   0.00    4.0
2021/09/08 23:18:46.000   43.027474104  -70.729665682   -23.8799   1   8   0.0059   0.0042   0.0116  -0.0016  -0.0045   0.0043   0.00    4.0
2021/09/08 23:18:47.000   43.027474087  -70.729665679   -23.8846   1   8   0.0051   0.0041   0.0114   0.0010  -0.0041   0.0038   0.00    4.0
2021/09/08 23:18:48.000   43.027474090  -70.729665661   -23.8836   1   8   0.0052   0.0046   0.0116  -0.0020  -0.0041   0.0040   0.00    4.0
2021/09/08 23:18:49.000   43.027474088  -70.729665659   -23.8847   1   8   0.0052   0.0043   0.0115  -0.0014  -0.0039   0.0038   0.00    4.0
2021/09/08 23:18:50.000   43.027474105  -70.729665666   -23.8804   1   8   0.0056   0.0046   0.0116  -0.0014  -0.0043   0.0041   0.00    4.0
2021/09/08 23:18:51.000   43.027474116  -70.729665661   -23.8828   1   8   0.0050   0.0045   0.0116  -0.0012  -0.0041   0.0039   0.00    3.9
2021/09/08 23:18:52.000   43.027474121  -70.729665659   -23.8769   1   8   0.0051   0.0041   0.0114  -0.0016  -0.0041   0.0040   0.00    3.9
2021/09/08 23:18:53.000   43.027474106  -70.729665679   -23.8741   1   8   0.0055   0.0043   0.0116  -0.0018  -0.0040   0.0040   0.00    3.9
2021/09/08 23:18:54.000   43.027474106  -70.729665667   -23.8780   1   8   0.0040   0.0030   0.0082  -0.0012  -0.0030   0.0029   0.00    3.9
2021/09/08 23:18:55.000   43.027474112  -70.729665660   -23.8741   1   8   0.0037   0.0032   0.0082  -0.0011  -0.0029   0.0029   0.00    3.9
2021/09/08 23:18:56.000   43.027474093  -70.729665649   -23.8797   1   8   0.0036   0.0029   0.0081  -0.0009  -0.0029   0.0028   0.00    3.9
2021/09/08 23:18:57.000   43.027474114  -70.729665664   -23.8770   1   8   0.0037   0.0031   0.0082  -0.0012  -0.0029   0.0028   0.00    3.9
2021/09/08 23:18:58.000   43.027474127  -70.729665648   -23.8741   1   8   0.0037   0.0031   0.0082  -0.0007  -0.0029   0.0028   0.00    3.9
2021/09/08 23:18:59.000   43.027474104  -70.729665638   -23.8767   1   8   0.0038   0.0030   0.0081  -0.0011  -0.0030   0.0028   0.00    3.8
2021/09/08 23:19:00.000   43.027474102  -70.729665644   -23.8779   1   8   0.0039   0.0030   0.0081  -0.0012  -0.0028   0.0028   0.00    3.8
2021/09/08 23:19:01.000   43.027474076  -70.729665615   -23.8829   1   8   0.0037   0.0030   0.0081  -0.0008  -0.0030   0.0029   0.00    3.8
2021/09/08 23:19:02.000   43.027474094  -70.729665623   -23.8797   1   8   0.0036   0.0031   0.0082  -0.0010  -0.0028   0.0027   0.00    3.8
2021/09/08 23:19:03.000   43.027474105  -70.729665642   -23.8810   1   8   0.0036   0.0031   0.0082  -0.0010  -0.0029   0.0027   0.00    3.8
2021/09/08 23:19:04.000   43.027474124  -70.729665655   -23.8807   1   8   0.0039   0.0030   0.0082  -0.0011  -0.0030   0.0029   0.00    3.8
2021/09/08 23:19:05.000   43.027474102  -70.729665658   -23.8796   1   8   0.0037   0.0031   0.0081  -0.0013  -0.0031   0.0028   0.00    3.8
2021/09/08 23:19:06.000   43.027474110  -70.729665636   -23.8794   1   8   0.0038   0.0028   0.0081  -0.0013  -0.0029   0.0028   0.00    3.8
2021/09/08 23:19:07.000   43.027474113  -70.729665668   -23.8789   1   8   0.0037   0.0032   0.0082  -0.0011  -0.0029   0.0027   0.00    3.8
2021/09/08 23:19:08.000   43.027474128  -70.729665662   -23.8806   1   8   0.0039   0.0029   0.0081  -0.0014  -0.0029   0.0029   0.00    3.8
2021/09/08 23:19:09.000   43.027474134  -70.729665677   -23.8732   1   8   0.0036   0.0031   0.0081  -0.0012  -0.0029   0.0027   0.00    3.8
2021/09/08 23:19:10.000   43.027474093  -70.729665645   -23.8799   1   8   0.0040   0.0030   0.0082  -0.0009  -0.0029   0.0029   0.00    3.8
2021/09/08 23:19:11.000   43.027474117  -70.729665641   -23.8767   1   8   0.0037   0.0030   0.0081  -0.0010  -0.0029   0.0028   0.00    3.8
2021/09/08 23:19:12.000   43.027474126  -70.729665662   -23.8777   1   8   0.0036   0.0029   0.0081  -0.0010  -0.0029   0.0028   0.00    3.7
2021/09/08 23:19:13.000   43.027474128  -70.729665662   -23.8722   1   8   0.0037   0.0029   0.0082  -0.0013  -0.0028   0.0029   0.00    3.7
2021/09/08 23:19:14.000   43.027474118  -70.729665659   -23.8746   1   8   0.0040   0.0029   0.0082  -0.0010  -0.0029   0.0030   0.00    3.7
2021/09/08 23:19:15.000   43.027474142  -70.729665669   -23.8723   1   8   0.0039   0.0030   0.0082  -0.0014  -0.0028   0.0029   0.00    3.7
2021/09/08 23:19:16.000   43.027474126  -70.729665674   -23.8788   1   8   0.0038   0.0030   0.0081  -0.0008  -0.0030   0.0029   0.00    3.7
2021/09/08 23:19:17.000   43.027474112  -70.729665697   -23.8706   1   8   0.0038   0.0031   0.0082  -0.0010  -0.0029   0.0029   0.00    3.7
2021/09/08 23:19:18.000   43.027474123  -70.729665671   -23.8731   1   8   0.0035   0.0030   0.0081  -0.0011  -0.0030   0.0027   0.00    3.7
2021/09/08 23:19:19.000   43.027474129  -70.729665653   -23.8723   1   8   0.0038   0.0030   0.0082  -0.0011  -0.0029   0.0030   0.00    3.7
2021/09/08 23:19:20.000   43.027474115  -70.729665659   -23.8755   1   8   0.0038   0.0032   0.0081  -0.0013  -0.0030   0.0028   0.00    3.6
2021/09/08 23:19:21.000   43.027474122  -70.729665682   -23.8727   1   8   0.0037   0.0030   0.0082  -0.0012  -0.0028   0.0028   0.00    3.6
2021/09/08 23:19:22.000   43.027474127  -70.729665668   -23.8713   1   8   0.0039   0.0031   0.0082  -0.0012  -0.0029   0.0028   0.00    3.6
2021/09/08 23:19:23.000   43.027474138  -70.729665670   -23.8737   1   8   0.0036   0.0031   0.0081  -0.0013  -0.0029   0.0027   0.00    3.6
2021/09/08 23:19:24.000   43.027474117  -70.729665663   -23.8780   1   8   0.0040   0.0030   0.0082  -0.0012  -0.0028   0.0029   0.00    3.6
2021/09/08 23:19:25.000   43.027474146  -70.729665653   -23.8754   1   8   0.0037   0.0030   0.0082  -0.0013  -0.0028   0.0028   0.00    3.6
2021/09/08 23:19:26.000   43.027474136  -70.729665668   -23.8754   1   8   0.0039   0.0031   0.0082  -0.0011  -0.0029   0.0029   0.00    3.6
2021/09/08 23:19:27.000   43.027474151  -70.729665657   -23.8781   1   8   0.0037   0.0031   0.0082  -0.0011  -0.0028   0.0028   0.00    3.5
2021/09/08 23:19:28.000   43.027474142  -70.729665633   -23.8799   1   8   0.0038   0.0030   0.0082  -0.0012  -0.0030   0.0028   0.00    3.5
2021/09/08 23:19:29.000   43.027474141  -70.729665649   -23.8748   1   8   0.0038   0.0027   0.0081  -0.0012  -0.0029   0.0029   0.00    3.5
2021/09/08 23:19:30.000   43.027474139  -70.729665652   -23.8745   1   8   0.0036   0.0033   0.0081  -0.0012  -0.0029   0.0026   0.00    3.5
2021/09/08 23:19:31.000   43.027474139  -70.729665673   -23.8720   1   8   0.0037   0.0032   0.0082  -0.0010  -0.0030   0.0028   0.00    3.5
2021/09/08 23:19:32.000   43.027474124  -70.729665660   -23.8737   1   8   0.0035   0.0031   0.0081  -0.0011  -0.0028   0.0027   0.00    3.5
2021/09/08 23:19:33.000   43.027474138  -70.729665671   -23.8701   1   8   0.0037   0.0031   0.0081  -0.0014  -0.0028   0.0027   0.00    3.5
2021/09/08 23:19:34.000   43.027474113  -70.729665666   -23.8698   1   8   0.0038   0.0029   0.0081  -0.0012  -0.0028   0.0029   0.00    3.5
2021/09/08 23:19:35.000   43.027474116  -70.729665668   -23.8684   1   8   0.0040   0.0032   0.0082  -0.0010  -0.0030   0.0029   0.00    3.5
2021/09/08 23:19:36.000   43.027474120  -70.729665676   -23.8678   1   8   0.0037   0.0031   0.0081  -0.0005  -0.0029   0.0028   0.00    3.5
2021/09/08 23:19:37.000   43.027474117  -70.729665682   -23.8706   1   8   0.0038   0.0031   0.0081  -0.0011  -0.0028   0.0029   0.00    3.5
2021/09/08 23:19:38.000   43.027474128  -70.729665669   -23.8662   1   8   0.0038   0.0030   0.0082  -0.0013  -0.0028   0.0029   0.00    3.5
2021/09/08 23:19:39.000   43.027474137  -70.729665673   -23.8720   1   8   0.0039   0.0029   0.0082  -0.0014  -0.0029   0.0028   0.00    3.5
2021/09/08 23:19:40.000   43.027474135  -70.729665685   -23.8711   1   8   0.0040   0.0030   0.0082  -0.0014  -0.0030   0.0029   0.00    3.5
2021/09/08 23:19:41.000   43.027474115  -70.729665685   -23.8694   1   8   0.0037   0.0031   0.0082  -0.0012  -0.0030   0.0028   0.00    3.5
2021/09/08 23:19:42.000   43.027474123  -70.729665669   -23.8711   1   8   0.0038   0.0031   0.0082  -0.0008  -0.0030   0.0029   0.00    3.5
2021/09/08 23:19:43.000   43.027474121  -70.729665695   -23.8651   1   8   0.0036   0.0030   0.0081  -0.0015  -0.0028   0.0028   0.00    3.4
2021/09/08 23:19:44.000   43.027474116  -70.729665672   -23.8695   1   8   0.0037   0.0029   0.0081  -0.0015  -0.0029   0.0029   0.00    3.4
2021/09/08 23:19:45.000   43.027474109  -70.729665685   -23.8680   1   8   0.0037   0.0032   0.0081  -0.0010  -0.0030   0.0028   0.00    3.4
2021/09/08 23:19:46.000   43.027474107  -70.729665675   -23.8717   1   8   0.0035   0.0031   0.0082  -0.0008  -0.0030   0.0027   0.00    3.4
2021/09/08 23:19:47.000   43.027474118  -70.729665684   -23.8722   1   8   0.0038   0.0030   0.0082  -0.0013  -0.0029   0.0029   0.00    3.4
2021/09/08 23:19:48.000   43.027474119  -70.729665690   -23.8717   1   8   0.0037   0.0032   0.0082  -0.0009  -0.0028   0.0028   0.00    3.4
2021/09/08 23:19:49.000   43.027474104  -70.729665653   -23.8757   1   8   0.0039   0.0030   0.0082  -0.0009  -0.0028   0.0030   0.00    3.4
2021/09/08 23:19:50.000   43.027474128  -70.729665684   -23.8731   1   8   0.0036   0.0029   0.0081  -0.0012  -0.0028   0.0027   0.00    3.4
2021/09/08 23:19:51.000   43.027474116  -70.729665693   -23.8732   1   8   0.0038   0.0032   0.0081  -0.0011  -0.0029   0.0028   0.00    3.4
2021/09/08 23:19:52.000   43.027474130  -70.729665692   -23.8688   1   8   0.0037   0.0029   0.0082  -0.0013  -0.0029   0.0027   0.00    3.4
2021/09/08 23:19:53.000   43.027474131  -70.729665682   -23.8688   1   8   0.0038   0.0032   0.0082  -0.0009  -0.0029   0.0029   0.00    3.4
2021/09/08 23:19:54.000   43.027474122  -70.729665688   -23.8735   1   8   0.0038   0.0032   0.0082  -0.0010  -0.0030   0.0028   0.00    3.4
2021/09/08 23:19:55.000   43.027474125  -70.729665700   -23.8711   1   8   0.0037   0.0031   0.0082  -0.0011  -0.0029   0.0027   0.00    3.4
2021/09/08 23:19:56.000   43.027474117  -70.729665693   -23.8696   1   8   0.0037   0.0030   0.0082  -0.0013  -0.0028   0.0028   0.00    3.4
2021/09/08 23:19:57.000   43.027474119  -70.729665698   -23.8726   1   8   0.0037   0.0031   0.0082  -0.0010  -0.0028   0.0027   0.00    3.4
2021/09/08 23:19:58.000   43.027474105  -70.729665682   -23.8687   1   8   0.0036   0.0029   0.0081  -0.0014  -0.0028   0.0028   0.00    3.4
2021/09/08 23:19:59.000   43.027474118  -70.729665704   -23.8702   1   8   0.0037   0.0030   0.0081  -0.0011  -0.0029   0.0028   0.00    3.4
2021/09/08 23:20:00.000   43.027474141  -70.729665711   -23.8644   1   8   0.0038   0.0029   0.0081  -0.0011  -0.0029   0.0029   0.00    3.4
2021/09/08 23:20:01.000   43.027474116  -70.729665723   -23.8707   1   8   0.0038   0.0031   0.0081  -0.0013  -0.0030   0.0028   0.00    3.4
2021/09/08 23:20:02.000   43.027474145  -70.729665717   -23.8651   1   8   0.0038   0.0031   0.0082  -0.0010  -0.0030   0.0028   0.00    3.4
2021/09/08 23:20:03.000   43.027474128  -70.729665707   -23.8683   1   8   0.0037   0.0032   0.0081  -0.0010  -0.0028   0.0027   0.00    3.4
2021/09/08 23:20:04.000   43.027474114  -70.729665740   -23.8705   1   8   0.0040   0.0031   0.0082  -0.0011  -0.0030   0.0029   0.00    3.4
2021/09/08 23:20:05.000   43.027474117  -70.729665723   -23.8684   1   8   0.0038   0.0032   0.0081  -0.0011  -0.0029   0.0027   0.00    3.4
2021/09/08 23:20:06.000   43.027474107  -70.729665715   -23.8676   1   8   0.0035   0.0029   0.0082  -0.0010  -0.0029   0.0028   0.00    3.4
2021/09/08 23:20:07.000   43.027474107  -70.729665716   -23.8709   1   8   0.0037   0.0030   0.0081  -0.0010  -0.0029   0.0028   0.00    3.4
2021/09/08 23:20:08.000   43.027474100  -70.729665706   -23.8712   1   8   0.0039   0.0030   0.0081  -0.0012  -0.0029   0.0029   0.00    3.4
2021/09/08 23:20:09.000   43.027474099  -70.729665707   -23.8719   1   8   0.0037   0.0030   0.0081  -0.0011  -0.0029   0.0028   0.00    3.4
2021/09/08 23:20:10.000   43.027474122  -70.729665720   -23.8705   1   8   0.0038   0.0031   0.0082  -0.0011  -0.0029   0.0029   0.00    3.4
2021/09/08 23:20:11.000   43.027474109  -70.729665720   -23.8702   1   8   0.0036   0.0031   0.0082  -0.0013  -0.0029   0.0027   0.00    3.4
2021/09/08 23:20:12.000   43.027474112  -70.729665727   -23.8697   1   8   0.0037   0.0030   0.0082  -0.0012  -0.0029   0.0029   0.00    3.4
2021/09/08 23:20:13.000   43.027474091  -70.729665757   -23.8708   1   8   0.0040   0.0031   0.0081  -0.0013  -0.0028   0.0029   0.00    3.4
2021/09/08 23:20:14.000   43.027474114  -70.729665737   -23.8692   1   8   0.0038   0.0031   0.0081  -0.0011  -0.0030   0.0027   0.00    3.4
2021/09/08 23:20:15.000   43.027474113  -70.729665733   -23.8689   1   8   0.0037   0.0029   0.0081  -0.0010  -0.0029   0.0028   0.00    3.4
2021/09/08 23:20:16.000   43.027474121  -70.729665754   -23.8657   1   8   0.0039   0.0032   0.0081  -0.0011  -0.0030   0.0028   0.00    3.4
2021/09/08 23:20:17.000   43.027474095  -70.729665724   -23.8717   1   8   0.0037   0.0032   0.0082  -0.0014  -0.0030   0.0028   0.00    3.4
2021/09/08 23:20:18.000   43.027474110  -70.729665741   -23.8673   1   8   0.0039   0.0030   0.0081  -0.0013  -0.0029   0.0029   0.00    3.4
2021/09/08 23:20:19.000   43.027474096  -70.729665717   -23.8656   1   8   0.0039   0.0032   0.0081  -0.0010  -0.0032   0.0028   0.00    3.4
2021/09/08 23:20:20.000   43.027474093  -70.729665731   -23.8674   1   8   0.0039   0.0031   0.0081  -0.0011  -0.0030   0.0029   0.00    3.4
2021/09/08 23:20:21.000   43.027474095  -70.729665731   -23.8667   1   8   0.0039   0.0032   0.0082  -0.0012  -0.0031   0.0030   0.00    3.4
2021/09/08 23:20:22.000   43.027474122  -70.729665728   -23.8649   1   8   0.0036   0.0031   0.0081  -0.0012  -0.0030   0.0027   0.00    3.4
2021/09/08 23:20:23.000   43.027474118  -70.729665736   -23.8617   1   8   0.0038   0.0031   0.0081  -0.0014  -0.0030   0.0028   0.00    3.4
2021/09/08 23:20:24.000   43.027474126  -70.729665756   -23.8586   1   8   0.0038   0.0031   0.0082  -0.0014  -0.0028   0.0028   0.00    3.4
2021/09/08 23:20:25.000   43.027474112  -70.729665734   -23.8631   1   8   0.0038   0.0031   0.0082  -0.0012  -0.0030   0.0029   0.00    3.4
2021/09/08 23:20:26.000   43.027474126  -70.729665747   -23.8670   1   8   0.0039   0.0031   0.0082  -0.0014  -0.0030   0.0028   0.00    3.4
2021/09/08 23:20:27.000   43.027474134  -70.729665745   -23.8670   1   8   0.0038   0.0030   0.0082  -0.0014  -0.0029   0.0028   0.00    3.4
2021/09/08 23:20:28.000   43.027474138  -70.729665747   -23.8608   1   8   0.0037   0.0030   0.0081  -0.0012  -0.0029   0.0027   0.00    3.4
2021/09/08 23:20:29.000   43.027474131  -70.729665751   -23.8599   1   8   0.0040   0.0033   0.0082  -0.0009  -0.0029   0.0030   0.00    3.4
2021/09/08 23:20:30.000   43.027474154  -70.729665747   -23.8622   1   8   0.0038   0.0029   0.0081  -0.0009  -0.0027   0.0028   0.00    3.4
2021/09/08 23:20:31.000   43.027474134  -70.729665738   -23.8665   1   8   0.0037   0.0030   0.0082  -0.0014  -0.0029   0.0028   0.00    3.3
2021/09/08 23:20:32.000   43.027474128  -70.729665775   -23.8654   1   8   0.0039   0.0031   0.0082  -0.0013  -0.0029   0.0029   0.00    3.3
2021/09/08 23:20:33.000   43.027474136  -70.729665766   -23.8649   1   8   0.0037   0.0030   0.0081  -0.0008  -0.0030   0.0028   0.00    3.3
2021/09/08 23:20:34.000   43.027474127  -70.729665779   -23.8554   1   8   0.0037   0.0031   0.0082  -0.0012  -0.0028   0.0028   0.00    3.3
2021/09/08 23:20:35.000   43.027474134  -70.729665738   -23.8584   1   8   0.0039   0.0031   0.0081  -0.0010  -0.0030   0.0029   0.00    3.3
2021/09/08 23:20:36.000   43.027474118  -70.729665766   -23.8601   1   8   0.0037   0.0031   0.0081  -0.0008  -0.0030   0.0028   0.00    3.3
2021/09/08 23:20:37.000   43.027474135  -70.729665756   -23.8583   1   8   0.0038   0.0032   0.0081  -0.0012  -0.0030   0.0028   0.00    3.3
2021/09/08 23:20:38.000   43.027474127  -70.729665742   -23.8595   1   8   0.0039   0.0031   0.0082  -0.0011  -0.0029   0.0029   0.00    3.3
2021/09/08 23:20:39.000   43.027474126  -70.729665732   -23.8668   1   8   0.0037   0.0029   0.0081  -0.0013  -0.0029   0.0028   0.00    3.3
2021/09/08 23:20:40.000   43.027474125  -70.729665768   -23.8627   1   8   0.0036   0.0031   0.0081  -0.0009  -0.0028   0.0027   0.00    3.3
2021/09/08 23:20:41.000   43.027474114  -70.729665764   -23.8605   1   8   0.0038   0.0030   0.0081  -0.0011  -0.0027   0.0029   0.00    3.3
2021/09/08 23:20:42.000   43.027474113  -70.729665768   -23.8674   1   8   0.0037   0.0030   0.0082  -0.0012  -0.0029   0.0028   0.00    3.3
2021/09/08 23:20:43.000   43.027474110  -70.729665777   -23.8616   1   8   0.0036   0.0031   0.0081  -0.0011  -0.0029   0.0027   0.00    3.3
2021/09/08 23:20:44.000   43.027474119  -70.729665795   -23.8607   1   8   0.0038   0.0032   0.0081  -0.0010  -0.0030   0.0028   0.00    3.3
2021/09/08 23:20:45.000   43.027474127  -70.729665758   -23.8623   1   8   0.0038   0.0031   0.0081  -0.0007  -0.0031   0.0028   0.00    3.3
2021/09/08 23:20:46.000   43.027474105  -70.729665763   -23.8648   1   8   0.0037   0.0030   0.0082  -0.0009  -0.0030   0.0028   0.00    3.4
2021/09/08 23:20:47.000   43.027474112  -70.729665755   -23.8650   1   8   0.0035   0.0030   0.0081  -0.0012  -0.0030   0.0027   0.00    3.4
2021/09/08 23:20:48.000   43.027474109  -70.729665768   -23.8678   1   8   0.0039   0.0031   0.0082  -0.0012  -0.0029   0.0030   0.00    3.4
2021/09/08 23:20:49.000   43.027474107  -70.729665789   -23.8623   1   8   0.0038   0.0030   0.0081  -0.0011  -0.0029   0.0028   0.00    3.4
2021/09/08 23:20:50.000   43.027474116  -70.729665779   -23.8614   1   8   0.0038   0.0031   0.0081  -0.0011  -0.0028   0.0028   0.00    3.4
2021/09/08 23:20:51.000   43.027474106  -70.729665760   -23.8640   1   8   0.0037   0.0028   0.0081  -0.0011  -0.0028   0.0028   0.00    3.4
2021/09/08 23:20:52.000   43.027474126  -70.729665783   -23.8605   1   8   0.0038   0.0030   0.0082  -0.0014  -0.0030   0.0029   0.00    3.4
2021/09/08 23:20:53.000   43.027474105  -70.729665749   -23.8612   1   8   0.0035   0.0030   0.0082  -0.0009  -0.0029   0.0028   0.00    3.4
2021/09/08 23:20:54.000   43.027474118  -70.729665750   -23.8646   1   8   0.0039   0.0029   0.0081  -0.0014  -0.0030   0.0029   0.00    3.4
2021/09/08 23:20:55.000   43.027474119  -70.729665759   -23.8643   1   8   0.0038   0.0030   0.0081  -0.0012  -0.0029   0.0028   0.00    3.4
2021/09/08 23:20:56.000   43.027474125  -70.729665758   -23.8577   1   8   0.0036   0.0031   0.0081  -0.0008  -0.0029   0.0028   0.00    3.4
2021/09/08 23:20:57.000   43.027474128  -70.729665772   -23.8606   1   8   0.0039   0.0032   0.0081  -0.0012  -0.0030   0.0028   0.00    3.4
2021/09/08 23:20:58.000   43.027474120  -70.729665763   -23.8651   1   8   0.0038   0.0030   0.0081  -0.0011  -0.0028   0.0029   0.00    3.4
2021/09/08 23:20:59.000   43.027474131  -70.729665727   -23.8624   1   8   0.0039   0.0032   0.0082  -0.0013  -0.0031   0.0030   0.00    3.4
2021/09/08 23:21:00.000   43.027474130  -70.729665750   -23.8550   1   8   0.0037   0.0030   0.0081  -0.0013  -0.0027   0.0027   0.00    3.4
2021/09/08 23:21:01.000   43.027474151  -70.729665753   -23.8552   1   8   0.0038   0.0031   0.0081  -0.0011  -0.0029   0.0027   0.00    3.4
2021/09/08 23:21:02.000   43.027474125  -70.729665742   -23.8551   1   8   0.0038   0.0031   0.0082  -0.0010  -0.0029   0.0028   0.00    3.4
2021/09/08 23:21:03.000   43.027474127  -70.729665742   -23.8581   1   8   0.0039   0.0031   0.0081  -0.0014  -0.0029   0.0028   0.00    3.4
2021/09/08 23:21:04.000   43.027474155  -70.729665755   -23.8605   1   8   0.0039   0.0029   0.0081  -0.0011  -0.0029   0.0029   0.00    3.4
2021/09/08 23:21:05.000   43.027474139  -70.729665762   -23.8545   1   8   0.0040   0.0030   0.0082  -0.0011  -0.0030   0.0029   0.00    3.4
2021/09/08 23:21:06.000   43.027474149  -70.729665757   -23.8540   1   8   0.0039   0.0031   0.0081  -0.0012  -0.0029   0.0029   0.00    3.4
2021/09/08 23:21:07.000   43.027474137  -70.729665753   -23.8554   1   8   0.0037   0.0030   0.0081  -0.0012  -0.0030   0.0028   0.00    3.4
2021/09/08 23:21:08.000   43.027474138  -70.729665763   -23.8553   1   8   0.0038   0.0031   0.0081  -0.0014  -0.0028   0.0028   0.00    3.4
2021/09/08 23:21:09.000   43.027474153  -70.729665766   -23.8492   1   8   0.0037   0.0031   0.0081  -0.0010  -0.0028   0.0028   0.00    3.4
2021/09/08 23:21:10.000   43.027474166  -70.729665783   -23.8517   1   8   0.0038   0.0029   0.0081  -0.0012  -0.0029   0.0028   0.00    3.4
2021/09/08 23:21:11.000   43.027474156  -70.729665754   -23.8576   1   8   0.0051   0.0045   0.0115  -0.0015  -0.0043   0.0038   0.00    3.4
2021/09/08 23:21:12.000   43.027474181  -70.729665783   -23.8527   1   8   0.0053   0.0042   0.0115  -0.0013  -0.0041   0.0040   0.00    3.4
2021/09/08 23:21:13.000   43.027474166  -70.729665763   -23.8543   1   8   0.0054   0.0044   0.0114  -0.0022  -0.0043   0.0041   0.00    3.4
2021/09/08 23:21:14.000   43.027474174  -70.729665765   -23.8522   1   8   0.0051   0.0045   0.0115  -0.0018  -0.0041   0.0039   0.00    3.4
2021/09/08 23:21:15.000   43.027474154  -70.729665773   -23.8528   1   8   0.0058   0.0043   0.0114  -0.0015  -0.0043   0.0041   0.00    3.4
2021/09/08 23:21:16.000   43.027474153  -70.729665767   -23.8538   1   8   0.0055   0.0040   0.0114  -0.0017  -0.0041   0.0040   0.00    3.4
2021/09/08 23:21:17.000   43.027474168  -70.729665758   -23.8548   1   8   0.0053   0.0042   0.0115  -0.0019  -0.0040   0.0039   0.00    3.4
2021/09/08 23:21:18.000   43.027474175  -70.729665788   -23.8478   1   8   0.0054   0.0043   0.0114  -0.0018  -0.0039   0.0038   0.00    3.4
2021/09/08 23:21:19.000   43.027474161  -70.729665752   -23.8498   1   8   0.0056   0.0044   0.0115  -0.0018  -0.0042   0.0040   0.00    3.4
2021/09/08 23:21:20.000   43.027474177  -70.729665760   -23.8529   1   8   0.0050   0.0043   0.0114  -0.0015  -0.0039   0.0039   0.00    3.4
2021/09/08 23:21:21.000   43.027474180  -70.729665743   -23.8499   1   8   0.0047   0.0042   0.0114  -0.0016  -0.0041   0.0036   0.00    3.4
2021/09/08 23:21:22.000   43.027474174  -70.729665756   -23.8550   1   8   0.0054   0.0045   0.0115  -0.0020  -0.0040   0.0040   0.00    3.4
2021/09/08 23:21:23.000   43.027474161  -70.729665756   -23.8558   1   8   0.0052   0.0048   0.0115  -0.0011  -0.0042   0.0040   0.00    3.4
2021/09/08 23:21:24.000   43.027474173  -70.729665769   -23.8487   1   8   0.0058   0.0040   0.0115  -0.0014  -0.0040   0.0043   0.00    3.4
2021/09/08 23:21:25.000   43.027474182  -70.729665749   -23.8522   1   8   0.0054   0.0046   0.0116  -0.0017  -0.0039   0.0039   0.00    3.4
2021/09/08 23:21:26.000   43.027474168  -70.729665785   -23.8515   1   8   0.0055   0.0040   0.0115  -0.0018  -0.0040   0.0041   0.00    3.4
2021/09/08 23:21:27.000   43.027474155  -70.729665768   -23.8530   1   8   0.0050   0.0043   0.0115  -0.0013  -0.0041   0.0038   0.00    3.4
2021/09/08 23:21:28.000   43.027474159  -70.729665792   -23.8518   1   8   0.0052   0.0042   0.0115  -0.0013  -0.0040   0.0040   0.00    3.4
2021/09/08 23:21:29.000   43.027474170  -70.729665784   -23.8520   1   8   0.0051   0.0042   0.0115  -0.0016  -0.0042   0.0039   0.00    3.4
2021/09/08 23:21:30.000   43.027474177  -70.729665785   -23.8506   1   8   0.0050   0.0048   0.0115  -0.0016  -0.0042   0.0037   0.00    3.4
2021/09/08 23:21:31.000   43.027474170  -70.729665803   -23.8460   1   8   0.0050   0.0044   0.0115  -0.0014  -0.0040   0.0038   0.00    3.4
2021/09/08 23:21:32.000   43.027474177  -70.729665799   -23.8477   1   8   0.0052   0.0044   0.0115  -0.0020  -0.0040   0.0037   0.00    3.4
2021/09/08 23:21:33.000   43.027474169  -70.729665782   -23.8498   1   8   0.0054   0.0046   0.0115  -0.0013  -0.0040   0.0039   0.00    3.4
2021/09/08 23:21:34.000   43.027474154  -70.729665788   -23.8507   1   8   0.0055   0.0043   0.0114  -0.0020  -0.0041   0.0040   0.00    3.4
2021/09/08 23:21:35.000   43.027474157  -70.729665794   -23.8490   1   8   0.0053   0.0044   0.0115  -0.0013  -0.0044   0.0041   0.00    3.4
2021/09/08 23:21:36.000   43.027474177  -70.729665821   -23.8472   1   8   0.0057   0.0045   0.0115  -0.0019  -0.0040   0.0040   0.00    3.4
2021/09/08 23:21:37.000   43.027474161  -70.729665786   -23.8457   1   8   0.0052   0.0043   0.0115  -0.0018  -0.0043   0.0040   0.00    3.4
2021/09/08 23:21:38.000   43.027474166  -70.729665784   -23.8501   1   8   0.0052   0.0044   0.0115  -0.0015  -0.0043   0.0040   0.00    3.4
2021/09/08 23:21:39.000   43.027474170  -70.729665793   -23.8484   1   8   0.0054   0.0046   0.0116  -0.0016  -0.0041   0.0040   0.00    3.4
2021/09/08 23:21:40.000   43.027474171  -70.729665782   -23.8489   1   8   0.0052   0.0043   0.0115  -0.0017  -0.0040   0.0040   0.00    3.4
2021/09/08 23:21:41.000   43.027474173  -70.729665782   -23.8491   1   8   0.0054   0.0040   0.0115  -0.0011  -0.0042   0.0041   0.00    3.4
2021/09/08 23:21:42.000   43.027474173  -70.729665808   -23.8494   1   8   0.0052   0.0044   0.0114  -0.0018  -0.0042   0.0039   0.00    3.4
2021/09/08 23:21:43.000   43.027474174  -70.729665781   -23.8524   1   8   0.0052   0.0042   0.0115  -0.0022  -0.0041   0.0039   0.00    3.4
2021/09/08 23:21:44.000   43.027474178  -70.729665780   -23.8516   1   8   0.0052   0.0043   0.0115  -0.0011  -0.0040   0.0041   0.00    3.4
2021/09/08 23:21:45.000   43.027474168  -70.729665860   -23.8513   1   8   0.0056   0.0041   0.0115  -0.0016  -0.0041   0.0040   0.00    3.4
2021/09/08 23:21:46.000   43.027474155  -70.729665820   -23.8544   1   8   0.0048   0.0047   0.0115  -0.0014  -0.0042   0.0038   0.00    3.3
2021/09/08 23:21:47.000   43.027474168  -70.729665837   -23.8545   1   8   0.0054   0.0045   0.0115  -0.0018  -0.0039   0.0040   0.00    3.3
2021/09/08 23:21:48.000   43.027474171  -70.729665811   -23.8589   1   8   0.0057   0.0043   0.0114  -0.0019  -0.0042   0.0042   0.00    3.3
2021/09/08 23:21:49.000   43.027474176  -70.729665823   -23.8569   1   8   0.0051   0.0042   0.0114  -0.0020  -0.0039   0.0038   0.00    3.3
2021/09/08 23:21:50.000   43.027474141  -70.729665847   -23.8566   1   8   0.0052   0.0043   0.0115  -0.0016  -0.0039   0.0040   0.00    3.3
2021/09/08 23:21:51.000   43.027474148  -70.729665830   -23.8578   1   8   0.0052   0.0040   0.0114  -0.0018  -0.0040   0.0040   0.00    3.3
2021/09/08 23:21:52.000   43.027474157  -70.729665822   -23.8532   1   8   0.0050   0.0042   0.0114  -0.0016  -0.0041   0.0039   0.00    3.3
2021/09/08 23:21:53.000   43.027474160  -70.729665803   -23.8586   1   8   0.0055   0.0040   0.0114  -0.0018  -0.0042   0.0040   0.00    3.3
2021/09/08 23:21:54.000   43.027474156  -70.729665816   -23.8610   1   8   0.0049   0.0044   0.0114  -0.0017  -0.0040   0.0036   0.00    3.3
2021/09/08 23:21:55.000   43.027474236  -70.729665869   -23.8572   1   8   0.0052   0.0043   0.0115  -0.0014  -0.0040   0.0037   0.00    3.3
2021/09/08 23:21:56.000   43.027474122  -70.729665830   -23.8649   1   8   0.0048   0.0043   0.0115  -0.0012  -0.0039   0.0038   0.00    3.3
2021/09/08 23:21:57.000   43.027474159  -70.729665813   -23.8562   1   8   0.0058   0.0044   0.0116  -0.0019  -0.0045   0.0043   0.00    3.3
2021/09/08 23:21:58.000   43.027474164  -70.729665789   -23.8551   1   8   0.0055   0.0043   0.0116  -0.0018  -0.0040   0.0042   0.00    3.3
2021/09/08 23:21:59.000   43.027474159  -70.729665802   -23.8620   1   8   0.0048   0.0042   0.0114  -0.0015  -0.0036   0.0037   0.00    3.3
2021/09/08 23:22:00.000   43.027474166  -70.729665817   -23.8522   1   8   0.0050   0.0044   0.0114  -0.0015  -0.0042   0.0037   0.00    3.3
2021/09/08 23:22:01.000   43.027474165  -70.729665817   -23.8573   1   8   0.0051   0.0040   0.0114  -0.0019  -0.0040   0.0039   0.00    3.3
2021/09/08 23:22:02.000   43.027474153  -70.729665802   -23.8553   1   8   0.0058   0.0043   0.0115  -0.0018  -0.0040   0.0041   0.00    3.3
2021/09/08 23:22:03.000   43.027474135  -70.729665817   -23.8572   1   8   0.0050   0.0042   0.0115  -0.0016  -0.0042   0.0037   0.00    3.3
2021/09/08 23:22:04.000   43.027474160  -70.729665812   -23.8572   1   8   0.0051   0.0047   0.0115  -0.0013  -0.0043   0.0039   0.00    3.3
2021/09/08 23:22:05.000   43.027474135  -70.729665806   -23.8583   1   8   0.0053   0.0045   0.0115  -0.0020  -0.0043   0.0037   0.00    3.3
2021/09/08 23:22:06.000   43.027474134  -70.729665808   -23.8571   1   8   0.0053   0.0046   0.0114  -0.0016  -0.0043   0.0040   0.00    3.3
2021/09/08 23:22:07.000   43.027474141  -70.729665796   -23.8602   1   8   0.0057   0.0045   0.0115  -0.0011  -0.0043   0.0042   0.00    3.3
2021/09/08 23:22:08.000   43.027474145  -70.729665777   -23.8591   1   8   0.0055   0.0045   0.0115  -0.0010  -0.0044   0.0041   0.00    3.3
2021/09/08 23:22:12.000   43.027471353  -70.729664940   -24.0319   2   4   1.1636   0.4231   3.3861  -0.3758   0.5567  -1.8810   0.00    0.0
2021/09/08 23:22:13.000   43.027474241  -70.729664499   -24.2784   2   4   0.9525   0.3462   2.7736  -0.3079   0.4562  -1.5400   0.00    0.0
2021/09/08 23:22:15.000   43.027489162  -70.729601016   -28.5932   2   4   1.9715   4.8624   5.7612   3.0820  -5.2616  -3.3698   0.00    1.0
2021/09/08 23:22:16.000   43.027472958  -70.729664590   -23.5073   2   6   0.0354   0.0787   0.0980   0.0483  -0.0825  -0.0557   0.00    1.1
2021/09/08 23:22:17.000   43.027473029  -70.729664867   -23.4924   2   6   0.0189   0.0231   0.0407   0.0095  -0.0110  -0.0211   0.00    1.6
2021/09/08 23:22:18.000   43.027473990  -70.729665992   -23.5027   2   8   0.0191   0.0232   0.0408   0.0094  -0.0109  -0.0210   0.00    2.7
2021/09/08 23:22:19.000   43.027477088  -70.729668992   -23.8632   1   8   0.0056   0.0043   0.0114  -0.0016  -0.0040   0.0040   0.00    4.6
2021/09/08 23:22:20.000   43.027477324  -70.729669202   -23.8669   1   8   0.0038   0.0031   0.0081  -0.0013  -0.0030   0.0028   0.00    3.0
2021/09/08 23:22:21.000   43.027477334  -70.729669189   -23.8736   1   8   0.0038   0.0031   0.0081  -0.0010  -0.0029   0.0028   0.00    3.0
2021/09/08 23:22:22.000   43.027477356  -70.729669209   -23.8723   1   8   0.0039   0.0030   0.0081  -0.0010  -0.0030   0.0029   0.00    3.1
2021/09/08 23:22:23.000   43.027477361  -70.729669202   -23.8696   1   8   0.0039   0.0028   0.0081  -0.0014  -0.0028   0.0029   0.00    3.2
2021/09/08 23:22:24.000   43.027477362  -70.729669214   -23.8694   1   8   0.0037   0.0030   0.0081  -0.0015  -0.0030   0.0027   0.00    3.1
2021/09/08 23:22:25.000   43.027477353  -70.729669234   -23.8700   1   8   0.0037   0.0030   0.0081  -0.0011  -0.0029   0.0028   0.00    3.1
2021/09/08 23:22:26.000   43.027477358  -70.729669221   -23.8699   1   8   0.0038   0.0031   0.0081  -0.0012  -0.0028   0.0029   0.00    3.1
2021/09/08 23:22:27.000   43.027477383  -70.729669235   -23.8647   1   8   0.0040   0.0032   0.0081  -0.0012  -0.0029   0.0029   0.00    3.1
2021/09/08 23:22:28.000   43.027477356  -70.729669243   -23.8678   1   8   0.0039   0.0031   0.0081  -0.0013  -0.0028   0.0028   0.00    3.1
2021/09/08 23:22:29.000   43.027477348  -70.729669228   -23.8641   1   8   0.0038   0.0031   0.0081  -0.0012  -0.0028   0.0028   0.00    3.1
2021/09/08 23:22:30.000   43.027477366  -70.729669228   -23.8725   1   8   0.0038   0.0032   0.0081  -0.0013  -0.0029   0.0027   0.00    3.1
2021/09/08 23:22:31.000   43.027477369  -70.729669226   -23.8669   1   8   0.0037   0.0030   0.0081  -0.0010  -0.0028   0.0028   0.00    3.1
2021/09/08 23:22:32.000   43.027477377  -70.729669243   -23.8628   1   8   0.0036   0.0031   0.0081  -0.0010  -0.0029   0.0027   0.00    3.1
2021/09/08 23:22:33.000   43.027477366  -70.729669244   -23.8683   1   8   0.0038   0.0031   0.0082  -0.0011  -0.0029   0.0029   0.00    3.1
2021/09/08 23:22:34.000   43.027477366  -70.729669231   -23.8628   1   8   0.0040   0.0031   0.0081  -0.0011  -0.0028   0.0028   0.00    3.1
2021/09/08 23:22:35.000   43.027477367  -70.729669261   -23.8622   1   8   0.0037   0.0029   0.0081  -0.0009  -0.0028   0.0028   0.00    3.1
2021/09/08 23:22:36.000   43.027477357  -70.729669253   -23.8613   1   8   0.0038   0.0031   0.0081  -0.0010  -0.0029   0.0028   0.00    3.2
2021/09/08 23:22:37.000   43.027477338  -70.729669232   -23.8670   1   8   0.0039   0.0030   0.0081  -0.0009  -0.0029   0.0028   0.00    3.2
2021/09/08 23:22:38.000   43.027477337  -70.729669229   -23.8704   1   8   0.0038   0.0030   0.0081  -0.0012  -0.0029   0.0027   0.00    3.2
2021/09/08 23:22:39.000   43.027477330  -70.729669220   -23.8674   1   8   0.0037   0.0030   0.0081  -0.0014  -0.0029   0.0028   0.00    3.2
2021/09/08 23:22:40.000   43.027477335  -70.729669205   -23.8674   1   8   0.0038   0.0030   0.0081  -0.0011  -0.0028   0.0028   0.00    3.1
2021/09/08 23:22:41.000   43.027477338  -70.729669218   -23.8690   1   8   0.0039   0.0031   0.0081  -0.0009  -0.0030   0.0028   0.00    3.1
2021/09/08 23:22:42.000   43.027477345  -70.729669207   -23.8675   1   8   0.0039   0.0031   0.0081  -0.0011  -0.0028   0.0029   0.00    3.1
2021/09/08 23:22:43.000   43.027477344  -70.729669237   -23.8663   1   8   0.0038   0.0031   0.0081  -0.0009  -0.0030   0.0028   0.00    3.1
2021/09/08 23:22:44.000   43.027477918  -70.729669804   -23.8683   1   8   0.0036   0.0030   0.0080  -0.0013  -0.0028   0.0026   0.00    3.1
2021/09/08 23:22:45.000   43.027480013  -70.729672134   -23.8716   1   8   0.0037   0.0031   0.0080  -0.0007  -0.0030   0.0027   0.00    3.1
2021/09/08 23:22:46.000   43.027483435  -70.729676022   -23.8714   1   8   0.0036   0.0029   0.0081  -0.0014  -0.0028   0.0027   0.00    3.1
2021/09/08 23:22:47.000   43.027487512  -70.729680534   -23.8799   1   8   0.0039   0.0031   0.0081  -0.0009  -0.0030   0.0029   0.00    3.1
2021/09/08 23:22:48.000   43.027490044  -70.729683332   -23.8764   1   8   0.0037   0.0030   0.0081  -0.0012  -0.0028   0.0028   0.00    3.0
2021/09/08 23:22:49.000   43.027490526  -70.729683997   -23.8737   1   8   0.0038   0.0032   0.0081  -0.0013  -0.0028   0.0027   0.00    3.0
2021/09/08 23:22:50.000   43.027490187  -70.729686031   -23.8753   1   8   0.0037   0.0032   0.0081  -0.0013  -0.0027   0.0028   0.00    3.0
2021/09/08 23:22:51.000   43.027490128  -70.729687358   -23.8750   1   8   0.0038   0.0031   0.0081  -0.0011  -0.0029   0.0028   0.00    3.0
2021/09/08 23:22:52.000   43.027490974  -70.729689416   -23.8761   1   8   0.0038   0.0030   0.0081  -0.0011  -0.0030   0.0028   0.00    3.0
2021/09/08 23:22:53.000   43.027491581  -70.729693148   -23.8717   1   8   0.0037   0.0031   0.0081  -0.0010  -0.0029   0.0028   0.00    3.0
2021/09/08 23:22:54.000   43.027491258  -70.729692201   -23.8851   1   8   0.0052   0.0043   0.0113  -0.0015  -0.0040   0.0036   0.00    3.9
2021/09/08 23:22:55.000   43.027489481  -70.729686885   -23.8814   1   8   0.0052   0.0043   0.0115  -0.0018  -0.0040   0.0038   0.00    3.9
2021/09/08 23:22:56.000   43.027487015  -70.729678710   -23.8854   1   8   0.0051   0.0043   0.0114  -0.0011  -0.0040   0.0036   0.00    3.8
2021/09/08 23:22:57.000   43.027484496  -70.729668949   -23.8728   1   8   0.0037   0.0029   0.0081  -0.0013  -0.0030   0.0027   0.00    3.0
2021/09/08 23:22:58.000   43.027482168  -70.729659059   -23.8717   1   8   0.0038   0.0029   0.0081  -0.0009  -0.0030   0.0029   0.00    3.0
2021/09/08 23:22:59.000   43.027479782  -70.729647422   -23.8718   1   8   0.0037   0.0031   0.0081  -0.0013  -0.0028   0.0028   0.00    3.0
2021/09/08 23:23:00.000   43.027477528  -70.729636629   -23.8672   1   8   0.0040   0.0031   0.0081  -0.0014  -0.0030   0.0029   0.00    3.0
2021/09/08 23:23:01.000   43.027475140  -70.729626025   -23.8457   1   8   0.0039   0.0030   0.0081  -0.0012  -0.0030   0.0028   0.00    3.1
2021/09/08 23:23:02.000   43.027472580  -70.729614817   -23.8478   1   8   0.0038   0.0029   0.0081  -0.0013  -0.0028   0.0029   0.00    3.0
2021/09/08 23:23:03.000   43.027470218  -70.729602903   -23.8440   1   8   0.0037   0.0030   0.0081  -0.0011  -0.0029   0.0028   0.00    3.0
2021/09/08 23:23:04.000   43.027468082  -70.729591937   -23.8301   1   8   0.0039   0.0030   0.0080  -0.0010  -0.0027   0.0028   0.00    3.0
2021/09/08 23:23:05.000   43.027465688  -70.729580574   -23.8134   1   8   0.0038   0.0031   0.0081  -0.0011  -0.0028   0.0028   0.00    3.0
2021/09/08 23:23:06.000   43.027463291  -70.729568987   -23.8053   1   8   0.0037   0.0029   0.0080  -0.0011  -0.0029   0.0028   0.00    3.0
2021/09/08 23:23:07.000   43.027461219  -70.729557446   -23.7919   1   8   0.0037   0.0030   0.0081  -0.0011  -0.0030   0.0028   0.00    3.0
2021/09/08 23:23:08.000   43.027459081  -70.729545812   -23.7755   1   8   0.0039   0.0031   0.0081  -0.0008  -0.0030   0.0029   0.00    3.0
2021/09/08 23:23:09.000   43.027457746  -70.729536586   -23.7728   1   8   0.0039   0.0031   0.0081  -0.0010  -0.0030   0.0029   0.00    3.0
2021/09/08 23:23:10.000   43.027456612  -70.729528343   -23.7659   1   8   0.0052   0.0042   0.0114  -0.0020  -0.0045   0.0041   0.00    3.4
2021/09/08 23:23:11.000   43.027455554  -70.729518695   -23.7545   1   8   0.0056   0.0042   0.0115  -0.0022  -0.0041   0.0042   0.00    3.4
2021/09/08 23:23:12.000   43.027454967  -70.729510828   -23.7420   1   8   0.0053   0.0044   0.0114  -0.0017  -0.0040   0.0040   0.00    3.4
2021/09/08 23:23:13.000   43.027454942  -70.729503395   -23.7304   1   8   0.0051   0.0044   0.0114  -0.0015  -0.0039   0.0037   0.00    3.3
2021/09/08 23:23:14.000   43.027455223  -70.729493860   -23.7229   1   8   0.0052   0.0041   0.0114  -0.0015  -0.0042   0.0040   0.00    3.3
2021/09/08 23:23:15.000   43.027456171  -70.729484102   -23.7089   1   8   0.0052   0.0046   0.0114  -0.0018  -0.0037   0.0038   0.00    3.3
2021/09/08 23:23:16.000   43.027457654  -70.729473730   -23.6899   1   8   0.0052   0.0043   0.0113  -0.0016  -0.0040   0.0036   0.00    3.2
2021/09/08 23:23:17.000   43.027459896  -70.729462694   -23.6849   1   8   0.0055   0.0044   0.0114  -0.0018  -0.0042   0.0040   0.00    3.2
2021/09/08 23:23:18.000   43.027462715  -70.729450899   -23.6843   1   8   0.0038   0.0030   0.0081  -0.0010  -0.0028   0.0027   0.00    3.0
2021/09/08 23:23:19.000   43.027466091  -70.729439863   -23.6719   1   8   0.0037   0.0030   0.0081  -0.0015  -0.0028   0.0028   0.00    3.0
2021/09/08 23:23:20.000   43.027469741  -70.729429258   -23.6558   1   8   0.0038   0.0030   0.0081  -0.0011  -0.0030   0.0028   0.00    3.0
2021/09/08 23:23:21.000   43.027473727  -70.729418795   -23.6363   1   8   0.0038   0.0030   0.0081  -0.0013  -0.0029   0.0028   0.00    3.0
2021/09/08 23:23:22.000   43.027478529  -70.729407757   -23.6323   1   8   0.0053   0.0044   0.0114  -0.0020  -0.0040   0.0040   0.00    3.1
2021/09/08 23:23:23.000   43.027483691  -70.729396682   -23.6182   1   8   0.0055   0.0044   0.0115  -0.0013  -0.0043   0.0042   0.00    3.1
2021/09/08 23:23:24.000   43.027489224  -70.729385102   -23.6089   1   8   0.0055   0.0043   0.0115  -0.0017  -0.0044   0.0042   0.00    3.1
2021/09/08 23:23:25.000   43.027495416  -70.729373646   -23.6083   1   8   0.0054   0.0042   0.0115  -0.0016  -0.0042   0.0042   0.00    3.1
2021/09/08 23:23:26.000   43.027501681  -70.729362333   -23.5981   1   8   0.0052   0.0041   0.0113  -0.0020  -0.0041   0.0038   0.00    3.1
2021/09/08 23:23:27.000   43.027508426  -70.729350783   -23.5862   1   8   0.0054   0.0044   0.0114  -0.0016  -0.0041   0.0039   0.00    3.1
2021/09/08 23:23:28.000   43.027515541  -70.729338947   -23.5744   1   8   0.0051   0.0044   0.0114  -0.0018  -0.0039   0.0037   0.00    3.1
2021/09/08 23:23:29.000   43.027523552  -70.729326407   -23.5559   1   8   0.0053   0.0046   0.0116  -0.0020  -0.0040   0.0040   0.00    3.1
2021/09/08 23:23:30.000   43.027531699  -70.729314076   -23.5407   1   8   0.0053   0.0040   0.0114  -0.0015  -0.0038   0.0039   0.00    3.1
2021/09/08 23:23:31.000   43.027540098  -70.729301622   -23.5310   1   8   0.0053   0.0043   0.0114  -0.0017  -0.0041   0.0038   0.00    3.1
2021/09/08 23:23:32.000   43.027548606  -70.729289491   -23.5242   1   8   0.0057   0.0040   0.0115  -0.0020  -0.0040   0.0041   0.00    3.1
2021/09/08 23:23:33.000   43.027556462  -70.729277961   -23.5125   1   8   0.0055   0.0043   0.0115  -0.0019  -0.0042   0.0041   0.00    3.1
2021/09/08 23:23:34.000   43.027563835  -70.729267181   -23.5037   1   8   0.0057   0.0047   0.0114  -0.0017  -0.0042   0.0041   0.00    3.1
2021/09/08 23:23:35.000   43.027571023  -70.729257006   -23.4924   1   8   0.0050   0.0043   0.0113  -0.0021  -0.0042   0.0038   0.00    3.1
2021/09/08 23:23:36.000   43.027579391  -70.729244944   -23.4980   1   8   0.0053   0.0046   0.0114  -0.0015  -0.0040   0.0038   0.00    3.2
2021/09/08 23:23:37.000   43.027588154  -70.729232564   -23.4914   1   8   0.0053   0.0044   0.0115  -0.0015  -0.0042   0.0040   0.00    3.1
2021/09/08 23:23:38.000   43.027595963  -70.729221460   -23.4941   1   8   0.0052   0.0043   0.0114  -0.0022  -0.0039   0.0039   0.00    3.1
2021/09/08 23:23:39.000   43.027602455  -70.729211704   -23.4882   1   8   0.0056   0.0044   0.0115  -0.0016  -0.0044   0.0041   0.00    3.2
